[
  {
    "id": "windy-1467181139",
    "name": "Einsiedeln: Strada Statale 1",
    "location": "Einsiedeln, Switzerland",
    "description": "Live webcam from Einsiedeln, Switzerland",
    "source": "windy",
    "windyId": "1467181139",
    "category": "Live",
    "coordinates": {
      "lat": 47.142,
      "lng": 8.7605
    },
    "enabled": true,
    "lastUpdated": "2026-01-12T16:36:38.065Z"
  },
  {
    "id": "windy-1155561911",
    "name": "Wadenswil: Johannisburg: Hütten",
    "location": "Wadenswil, Switzerland",
    "description": "Live webcam from Wadenswil, Switzerland",
    "source": "windy",
    "windyId": "1155561911",
    "category": "Live",
    "coordinates": {
      "lat": 47.18249,
      "lng": 8.6642
    },
    "enabled": true,
    "lastUpdated": "2026-01-12T16:36:38.065Z"
  },
  {
    "id": "windy-1227972392",
    "name": "Sankt Gallen › East: St. Gallen - Klosterplatz",
    "location": "Sankt Gallen, Switzerland",
    "description": "Live webcam from Sankt Gallen, Switzerland",
    "source": "windy",
    "windyId": "1227972392",
    "category": "Live",
    "coordinates": {
      "lat": 47.4234,
      "lng": 9.37591
    },
    "enabled": true,
    "lastUpdated": "2026-01-12T16:36:38.065Z"
  },
  {
    "id": "windy-1196843016",
    "name": "Rovaniemi: Lordin Aukio, Finland",
    "location": "Rovaniemi, Finland",
    "description": "Live webcam from Rovaniemi, Finland",
    "source": "windy",
    "windyId": "1196843016",
    "category": "Live",
    "coordinates": {
      "lat": 66.50204,
      "lng": 25.73041
    },
    "enabled": true,
    "lastUpdated": "2026-01-12T16:36:38.065Z"
  },
  {
    "id": "windy-1392640242",
    "name": "Kliny › South-west: Klíny Ski & Sports Area",
    "location": "Kliny, Czechia",
    "description": "Live webcam from Kliny, Czechia",
    "source": "windy",
    "windyId": "1392640242",
    "category": "Live",
    "coordinates": {
      "lat": 50.63176,
      "lng": 13.57193
    },
    "enabled": true,
    "lastUpdated": "2026-01-12T16:36:38.065Z"
  },
  {
    "id": "windy-1170887551",
    "name": "Cape Town: South Africa",
    "location": "Cape Town, South Africa",
    "description": "Live webcam from Cape Town, South Africa",
    "source": "windy",
    "windyId": "1170887551",
    "category": "Live",
    "coordinates": {
      "lat": -33.88282,
      "lng": 18.49222
    },
    "enabled": true,
    "lastUpdated": "2026-01-12T16:36:38.065Z"
  },
  {
    "id": "windy-1548834305",
    "name": "Scanno: Abruzzo, Italia",
    "location": "Scanno, Italy",
    "description": "Live webcam from Scanno, Italy",
    "source": "windy",
    "windyId": "1548834305",
    "category": "Live",
    "coordinates": {
      "lat": 41.90442,
      "lng": 13.87977
    },
    "enabled": true,
    "lastUpdated": "2026-01-12T16:36:38.065Z"
  },
  {
    "id": "windy-1272223531",
    "name": "Navarredonda de Gredos: Bar el Cruce",
    "location": "Navarredonda de Gredos, Spain",
    "description": "Live webcam from Navarredonda de Gredos, Spain",
    "source": "windy",
    "windyId": "1272223531",
    "category": "Live",
    "coordinates": {
      "lat": 40.36156,
      "lng": -5.1351
    },
    "enabled": true,
    "lastUpdated": "2026-01-12T16:36:38.065Z"
  },
  {
    "id": "windy-1337867816",
    "name": "Oslo: Havn - Raadhuskaia",
    "location": "Oslo, Norway",
    "description": "Live webcam from Oslo, Norway",
    "source": "windy",
    "windyId": "1337867816",
    "category": "Live",
    "coordinates": {
      "lat": 59.91175,
      "lng": 10.73342
    },
    "enabled": true,
    "lastUpdated": "2026-01-12T16:36:38.065Z"
  },
  {
    "id": "windy-1267633028",
    "name": "Agia Kyriaki: Parga",
    "location": "Agia Kyriaki, Greece",
    "description": "Live webcam from Agia Kyriaki, Greece",
    "source": "windy",
    "windyId": "1267633028",
    "category": "Live",
    "coordinates": {
      "lat": 39.28329,
      "lng": 20.40486
    },
    "enabled": true,
    "lastUpdated": "2026-01-12T16:36:38.065Z"
  },
  {
    "id": "windy-1548167184",
    "name": "Scanno: SINET SRL",
    "location": "Scanno, Italy",
    "description": "Live webcam from Scanno, Italy",
    "source": "windy",
    "windyId": "1548167184",
    "category": "Live",
    "coordinates": {
      "lat": 41.94023,
      "lng": 13.882
    },
    "enabled": true,
    "lastUpdated": "2026-01-12T16:36:38.065Z"
  },
  {
    "id": "windy-1171132133",
    "name": "Honolulu: Beach",
    "location": "Honolulu, United States",
    "description": "Live webcam from Honolulu, United States",
    "source": "windy",
    "windyId": "1171132133",
    "category": "Live",
    "coordinates": {
      "lat": 21.29701,
      "lng": -157.86688
    },
    "enabled": true,
    "lastUpdated": "2026-01-12T16:36:38.065Z"
  },
  {
    "id": "windy-1235134756",
    "name": "Finse",
    "location": "Finse, Norway",
    "description": "Live webcam from Finse, Norway",
    "source": "windy",
    "windyId": "1235134756",
    "category": "Live",
    "coordinates": {
      "lat": 60.60176,
      "lng": 7.50406
    },
    "enabled": true,
    "lastUpdated": "2026-01-12T16:36:38.065Z"
  },
  {
    "id": "windy-1177669859",
    "name": "Bunker Hill: Los Angeles City",
    "location": "Bunker Hill, United States",
    "description": "Live webcam from Bunker Hill, United States",
    "source": "windy",
    "windyId": "1177669859",
    "category": "Live",
    "coordinates": {
      "lat": 34.04089,
      "lng": -118.26342
    },
    "enabled": true,
    "lastUpdated": "2026-01-12T16:36:38.065Z"
  },
  {
    "id": "windy-1151927998",
    "name": "Boltigen: Jaunpass › North",
    "location": "Boltigen, Switzerland",
    "description": "Live webcam from Boltigen, Switzerland",
    "source": "windy",
    "windyId": "1151927998",
    "category": "Live",
    "coordinates": {
      "lat": 46.59273,
      "lng": 7.33923
    },
    "enabled": true,
    "lastUpdated": "2026-01-12T16:36:38.065Z"
  },
  {
    "id": "windy-1697031757",
    "name": "Wildhaus-Alt St. Johann: Säntis",
    "location": "Wildhaus-Alt St. Johann, Switzerland",
    "description": "Live webcam from Wildhaus-Alt St. Johann, Switzerland",
    "source": "windy",
    "windyId": "1697031757",
    "category": "Live",
    "coordinates": {
      "lat": 47.24922,
      "lng": 9.3432
    },
    "enabled": true,
    "lastUpdated": "2026-01-12T16:36:38.065Z"
  },
  {
    "id": "windy-1010909487",
    "name": "Elm: Munggä Hüttä",
    "location": "Elm, Switzerland",
    "description": "Live webcam from Elm, Switzerland",
    "source": "windy",
    "windyId": "1010909487",
    "category": "Live",
    "coordinates": {
      "lat": 46.92231,
      "lng": 9.14318
    },
    "enabled": true,
    "lastUpdated": "2026-01-12T16:36:38.065Z"
  },
  {
    "id": "windy-1293356144",
    "name": "Fluhli: Schwändiliflue",
    "location": "Fluhli, Switzerland",
    "description": "Live webcam from Fluhli, Switzerland",
    "source": "windy",
    "windyId": "1293356144",
    "category": "Live",
    "coordinates": {
      "lat": 46.87676,
      "lng": 8.01308
    },
    "enabled": true,
    "lastUpdated": "2026-01-12T16:36:38.065Z"
  },
  {
    "id": "windy-1531049481",
    "name": "Skorzecin: Województwo wielkopolskie, Rzeczpospolita Polska",
    "location": "Skorzecin, Poland",
    "description": "Live webcam from Skorzecin, Poland",
    "source": "windy",
    "windyId": "1531049481",
    "category": "Live",
    "coordinates": {
      "lat": 52.46344,
      "lng": 17.85707
    },
    "enabled": true,
    "lastUpdated": "2026-01-12T16:36:38.065Z"
  },
  {
    "id": "windy-1513089804",
    "name": "Chennai: Tamil Nadu - North-North West",
    "location": "Chennai, India",
    "description": "Live webcam from Chennai, India",
    "source": "windy",
    "windyId": "1513089804",
    "category": "Live",
    "coordinates": {
      "lat": 13.12524,
      "lng": 80.16037
    },
    "enabled": true,
    "lastUpdated": "2026-01-12T16:36:38.065Z"
  },
  {
    "id": "windy-1245318606",
    "name": "Phuket: Karon Beach",
    "location": "Phuket, Thailand",
    "description": "Live webcam from Phuket, Thailand",
    "source": "windy",
    "windyId": "1245318606",
    "category": "Live",
    "coordinates": {
      "lat": 7.82925,
      "lng": 98.2937
    },
    "enabled": true,
    "lastUpdated": "2026-01-12T16:36:38.065Z"
  },
  {
    "id": "windy-1070189674",
    "name": "Meyrin: Cointrin › North-east: Route de l'Aéroport",
    "location": "Meyrin, Switzerland",
    "description": "Live webcam from Meyrin, Switzerland",
    "source": "windy",
    "windyId": "1070189674",
    "category": "Live",
    "coordinates": {
      "lat": 46.22603,
      "lng": 6.10194
    },
    "enabled": true,
    "lastUpdated": "2026-01-12T16:36:38.065Z"
  },
  {
    "id": "windy-1697032937",
    "name": "Rheinwald: Tanatzhöhe",
    "location": "Rheinwald, Switzerland",
    "description": "Live webcam from Rheinwald, Switzerland",
    "source": "windy",
    "windyId": "1697032937",
    "category": "Live",
    "coordinates": {
      "lat": 46.53058,
      "lng": 9.31386
    },
    "enabled": true,
    "lastUpdated": "2026-01-12T16:36:38.065Z"
  },
  {
    "id": "windy-1195330772",
    "name": "Schmitten: Großer Feldberg - Taunus",
    "location": "Schmitten, Germany",
    "description": "Live webcam from Schmitten, Germany",
    "source": "windy",
    "windyId": "1195330772",
    "category": "Live",
    "coordinates": {
      "lat": 50.23117,
      "lng": 8.45618
    },
    "enabled": true,
    "lastUpdated": "2026-01-12T16:36:38.065Z"
  },
  {
    "id": "windy-1171306955",
    "name": "Cologne: Cologne Cathedral",
    "location": "Cologne, Germany",
    "description": "Live webcam from Cologne, Germany",
    "source": "windy",
    "windyId": "1171306955",
    "category": "Live",
    "coordinates": {
      "lat": 50.93848,
      "lng": 6.95237
    },
    "enabled": true,
    "lastUpdated": "2026-01-12T16:36:38.065Z"
  },
  {
    "id": "windy-1059056842",
    "name": "Stans: Stanserhorn Live-Bild",
    "location": "Stans, Switzerland",
    "description": "Live webcam from Stans, Switzerland",
    "source": "windy",
    "windyId": "1059056842",
    "category": "Live",
    "coordinates": {
      "lat": 46.92976,
      "lng": 8.34031
    },
    "enabled": true,
    "lastUpdated": "2026-01-12T16:36:38.065Z"
  },
  {
    "id": "windy-1179240123",
    "name": "Kowloon",
    "location": "Kowloon, China",
    "description": "Live webcam from Kowloon, China",
    "source": "windy",
    "windyId": "1179240123",
    "category": "Live",
    "coordinates": {
      "lat": 22.30698,
      "lng": 114.18096
    },
    "enabled": true,
    "lastUpdated": "2026-01-12T16:36:38.065Z"
  },
  {
    "id": "windy-1292512906",
    "name": "Sorenberg: Brienzer Rothorn - Gipfelrestaurant",
    "location": "Sorenberg, Switzerland",
    "description": "Live webcam from Sorenberg, Switzerland",
    "source": "windy",
    "windyId": "1292512906",
    "category": "Live",
    "coordinates": {
      "lat": 46.78729,
      "lng": 8.04448
    },
    "enabled": true,
    "lastUpdated": "2026-01-12T16:36:38.065Z"
  },
  {
    "id": "windy-1206745451",
    "name": "Prague: Charles Bridge - Prague Castle",
    "location": "Prague, Czechia",
    "description": "Live webcam from Prague, Czechia",
    "source": "windy",
    "windyId": "1206745451",
    "category": "Live",
    "coordinates": {
      "lat": 50.08588,
      "lng": 14.4139
    },
    "enabled": true,
    "lastUpdated": "2026-01-12T16:36:38.065Z"
  },
  {
    "id": "windy-1445250653",
    "name": "Alpnach: Pilatus Kulm - Bürgenstock - Lucerne - Lake Lucerne - Rigi Kulm",
    "location": "Alpnach, Switzerland",
    "description": "Live webcam from Alpnach, Switzerland",
    "source": "windy",
    "windyId": "1445250653",
    "category": "Live",
    "coordinates": {
      "lat": 46.97925,
      "lng": 8.25632
    },
    "enabled": true,
    "lastUpdated": "2026-01-12T16:36:38.065Z"
  },
  {
    "id": "windy-1697037418",
    "name": "Glarus Sud: Ortstock - Tödi",
    "location": "Glarus Sud, Switzerland",
    "description": "Live webcam from Glarus Sud, Switzerland",
    "source": "windy",
    "windyId": "1697037418",
    "category": "Live",
    "coordinates": {
      "lat": 46.95623,
      "lng": 8.98509
    },
    "enabled": true,
    "lastUpdated": "2026-01-12T16:36:38.065Z"
  },
  {
    "id": "windy-1119270291",
    "name": "Lucerne: Altstadt",
    "location": "Lucerne, Switzerland",
    "description": "Live webcam from Lucerne, Switzerland",
    "source": "windy",
    "windyId": "1119270291",
    "category": "Live",
    "coordinates": {
      "lat": 47.05083,
      "lng": 8.30871
    },
    "enabled": true,
    "lastUpdated": "2026-01-12T16:36:38.065Z"
  },
  {
    "id": "windy-1203788038",
    "name": "Tromso › South: Tromsø: Institutt for Informatikk, Universitetet",
    "location": "Tromso, Norway",
    "description": "Live webcam from Tromso, Norway",
    "source": "windy",
    "windyId": "1203788038",
    "category": "Live",
    "coordinates": {
      "lat": 69.68178,
      "lng": 18.97545
    },
    "enabled": true,
    "lastUpdated": "2026-01-12T16:36:38.065Z"
  },
  {
    "id": "windy-1305291442",
    "name": "Audierne: le Port",
    "location": "Audierne, France",
    "description": "Live webcam from Audierne, France",
    "source": "windy",
    "windyId": "1305291442",
    "category": "Live",
    "coordinates": {
      "lat": 48.0239,
      "lng": -4.53812
    },
    "enabled": true,
    "lastUpdated": "2026-01-12T16:36:38.065Z"
  },
  {
    "id": "windy-1476373146",
    "name": "Fluhli › South-west: LU - Luzern, Schweiz: Skigebiet - Blasen",
    "location": "Fluhli, Switzerland",
    "description": "Live webcam from Fluhli, Switzerland",
    "source": "windy",
    "windyId": "1476373146",
    "category": "Live",
    "coordinates": {
      "lat": 46.88357,
      "lng": 8.01987
    },
    "enabled": true,
    "lastUpdated": "2026-01-12T16:36:38.065Z"
  },
  {
    "id": "windy-1116324674",
    "name": "Wohlen bei Bern › North: Ittigen",
    "location": "Wohlen bei Bern, Switzerland",
    "description": "Live webcam from Wohlen bei Bern, Switzerland",
    "source": "windy",
    "windyId": "1116324674",
    "category": "Live",
    "coordinates": {
      "lat": 46.99354,
      "lng": 7.33983
    },
    "enabled": true,
    "lastUpdated": "2026-01-12T16:36:38.065Z"
  },
  {
    "id": "windy-1047853963",
    "name": "Scuol: Schlivera",
    "location": "Scuol, Switzerland",
    "description": "Live webcam from Scuol, Switzerland",
    "source": "windy",
    "windyId": "1047853963",
    "category": "Live",
    "coordinates": {
      "lat": 46.81944,
      "lng": 10.25817
    },
    "enabled": true,
    "lastUpdated": "2026-01-12T16:36:38.065Z"
  },
  {
    "id": "windy-1105008078",
    "name": "Mesocco: San Bernardino 2",
    "location": "Mesocco, Switzerland",
    "description": "Live webcam from Mesocco, Switzerland",
    "source": "windy",
    "windyId": "1105008078",
    "category": "Live",
    "coordinates": {
      "lat": 46.46281,
      "lng": 9.18985
    },
    "enabled": true,
    "lastUpdated": "2026-01-12T16:36:38.065Z"
  },
  {
    "id": "windy-1511343694",
    "name": "Boltigen: Gastlosenarena: Langlaufen Jaunpass",
    "location": "Boltigen, Switzerland",
    "description": "Live webcam from Boltigen, Switzerland",
    "source": "windy",
    "windyId": "1511343694",
    "category": "Live",
    "coordinates": {
      "lat": 46.58983,
      "lng": 7.33575
    },
    "enabled": true,
    "lastUpdated": "2026-01-12T16:36:38.065Z"
  },
  {
    "id": "windy-1206291667",
    "name": "Brno › West: Malinovského náměstí - Mahen Theatre",
    "location": "Brno, Czechia",
    "description": "Live webcam from Brno, Czechia",
    "source": "windy",
    "windyId": "1206291667",
    "category": "Live",
    "coordinates": {
      "lat": 49.19568,
      "lng": 16.61463
    },
    "enabled": true,
    "lastUpdated": "2026-01-12T16:36:38.065Z"
  },
  {
    "id": "windy-1485691420",
    "name": "Rhodes › West: Akti Kanari",
    "location": "Rhodes, Greece",
    "description": "Live webcam from Rhodes, Greece",
    "source": "windy",
    "windyId": "1485691420",
    "category": "Live",
    "coordinates": {
      "lat": 36.45024,
      "lng": 28.21614
    },
    "enabled": true,
    "lastUpdated": "2026-01-12T16:36:38.065Z"
  },
  {
    "id": "windy-1292513378",
    "name": "Lenk: Lenkerhof gourmet spa resort - Relais & Châteaux",
    "location": "Lenk, Switzerland",
    "description": "Live webcam from Lenk, Switzerland",
    "source": "windy",
    "windyId": "1292513378",
    "category": "Live",
    "coordinates": {
      "lat": 46.45443,
      "lng": 7.43577
    },
    "enabled": true,
    "lastUpdated": "2026-01-12T16:36:38.065Z"
  },
  {
    "id": "windy-1028382983",
    "name": "Davos: Wolfgang - Davosersee",
    "location": "Davos, Switzerland",
    "description": "Live webcam from Davos, Switzerland",
    "source": "windy",
    "windyId": "1028382983",
    "category": "Live",
    "coordinates": {
      "lat": 46.82646,
      "lng": 9.85831
    },
    "enabled": true,
    "lastUpdated": "2026-01-12T16:36:38.065Z"
  },
  {
    "id": "windy-1249392511",
    "name": "Guaruja: Praia das Pitangueiras - SP -Brasil",
    "location": "Guaruja, Brazil",
    "description": "Live webcam from Guaruja, Brazil",
    "source": "windy",
    "windyId": "1249392511",
    "category": "Live",
    "coordinates": {
      "lat": -23.99613,
      "lng": -46.25063
    },
    "enabled": true,
    "lastUpdated": "2026-01-12T16:36:38.065Z"
  },
  {
    "id": "windy-1112092231",
    "name": "Carouge › North: Geneva 2",
    "location": "Carouge, Switzerland",
    "description": "Live webcam from Carouge, Switzerland",
    "source": "windy",
    "windyId": "1112092231",
    "category": "Live",
    "coordinates": {
      "lat": 46.1825,
      "lng": 6.13775
    },
    "enabled": true,
    "lastUpdated": "2026-01-12T16:36:38.065Z"
  },
  {
    "id": "windy-1453368790",
    "name": "Tujetsch › South-east: Oberalppass - Graubünden, Schweiz: Pazzola",
    "location": "Tujetsch, Switzerland",
    "description": "Live webcam from Tujetsch, Switzerland",
    "source": "windy",
    "windyId": "1453368790",
    "category": "Live",
    "coordinates": {
      "lat": 46.65874,
      "lng": 8.67182
    },
    "enabled": true,
    "lastUpdated": "2026-01-12T16:36:38.065Z"
  },
  {
    "id": "windy-1212181257",
    "name": "Frankfurt › West: Main Tower",
    "location": "Frankfurt, Germany",
    "description": "Live webcam from Frankfurt, Germany",
    "source": "windy",
    "windyId": "1212181257",
    "category": "Live",
    "coordinates": {
      "lat": 50.10674,
      "lng": 8.69463
    },
    "enabled": true,
    "lastUpdated": "2026-01-12T16:36:38.065Z"
  },
  {
    "id": "windy-1169492104",
    "name": "Vienna: Hofburg",
    "location": "Vienna, Austria",
    "description": "Live webcam from Vienna, Austria",
    "source": "windy",
    "windyId": "1169492104",
    "category": "Live",
    "coordinates": {
      "lat": 48.21071,
      "lng": 16.35802
    },
    "enabled": true,
    "lastUpdated": "2026-01-12T16:36:38.065Z"
  },
  {
    "id": "windy-1046512103",
    "name": "Zug: Zug Marina (Hafen)",
    "location": "Zug, Switzerland",
    "description": "Live webcam from Zug, Switzerland",
    "source": "windy",
    "windyId": "1046512103",
    "category": "Live",
    "coordinates": {
      "lat": 47.17297,
      "lng": 8.50488
    },
    "enabled": true,
    "lastUpdated": "2026-01-12T16:36:38.065Z"
  },
  {
    "id": "windy-1170927034",
    "name": "Milan: Duomo di Milano",
    "location": "Milan, Italy",
    "description": "Live webcam from Milan, Italy",
    "source": "windy",
    "windyId": "1170927034",
    "category": "Live",
    "coordinates": {
      "lat": 45.46421,
      "lng": 9.19195
    },
    "enabled": true,
    "lastUpdated": "2026-01-12T16:36:38.065Z"
  },
  {
    "id": "windy-1507730892",
    "name": "Daytona Beach › West: Embry-Riddle Aeronautical University",
    "location": "Daytona Beach, United States",
    "description": "Live webcam from Daytona Beach, United States",
    "source": "windy",
    "windyId": "1507730892",
    "category": "Live",
    "coordinates": {
      "lat": 29.18659,
      "lng": -81.05157
    },
    "enabled": true,
    "lastUpdated": "2026-01-12T16:36:38.065Z"
  },
  {
    "id": "windy-1166267733",
    "name": "Hong Kong: Harbour City - Ocean Terminal Car Park",
    "location": "Hong Kong, China",
    "description": "Live webcam from Hong Kong, China",
    "source": "windy",
    "windyId": "1166267733",
    "category": "Live",
    "coordinates": {
      "lat": 22.2891,
      "lng": 114.1555
    },
    "enabled": true,
    "lastUpdated": "2026-01-12T16:36:38.065Z"
  },
  {
    "id": "windy-1228461165",
    "name": "Lugano: Piazza Riforma",
    "location": "Lugano, Switzerland",
    "description": "Live webcam from Lugano, Switzerland",
    "source": "windy",
    "windyId": "1228461165",
    "category": "Live",
    "coordinates": {
      "lat": 46.00385,
      "lng": 8.9512
    },
    "enabled": true,
    "lastUpdated": "2026-01-12T16:36:38.065Z"
  },
  {
    "id": "windy-1289303006",
    "name": "Trikala",
    "location": "Trikala, Greece",
    "description": "Live webcam from Trikala, Greece",
    "source": "windy",
    "windyId": "1289303006",
    "category": "Live",
    "coordinates": {
      "lat": 39.55746,
      "lng": 21.76246
    },
    "enabled": true,
    "lastUpdated": "2026-01-12T16:36:38.065Z"
  },
  {
    "id": "windy-1181820895",
    "name": "Santa Maria: Pontao",
    "location": "Santa Maria, Cape Verde",
    "description": "Live webcam from Santa Maria, Cape Verde",
    "source": "windy",
    "windyId": "1181820895",
    "category": "Live",
    "coordinates": {
      "lat": 16.59747,
      "lng": -22.90765
    },
    "enabled": true,
    "lastUpdated": "2026-01-12T16:36:38.065Z"
  },
  {
    "id": "windy-1509611733",
    "name": "Chennai › North-east: Tamil Nadu, India",
    "location": "Chennai, India",
    "description": "Live webcam from Chennai, India",
    "source": "windy",
    "windyId": "1509611733",
    "category": "Live",
    "coordinates": {
      "lat": 23.94302,
      "lng": 89.40949
    },
    "enabled": true,
    "lastUpdated": "2026-01-12T16:36:38.065Z"
  },
  {
    "id": "windy-1010222761",
    "name": "Grindelwald: Männlichen, Blick zur Jungfrau",
    "location": "Grindelwald, Switzerland",
    "description": "Live webcam from Grindelwald, Switzerland",
    "source": "windy",
    "windyId": "1010222761",
    "category": "Live",
    "coordinates": {
      "lat": 46.61124,
      "lng": 7.94209
    },
    "enabled": true,
    "lastUpdated": "2026-01-12T16:36:38.065Z"
  },
  {
    "id": "windy-1482537945",
    "name": "Fiesch: Fiescheralp",
    "location": "Fiesch, Switzerland",
    "description": "Live webcam from Fiesch, Switzerland",
    "source": "windy",
    "windyId": "1482537945",
    "category": "Live",
    "coordinates": {
      "lat": 46.41303,
      "lng": 8.10335
    },
    "enabled": true,
    "lastUpdated": "2026-01-12T16:36:38.065Z"
  },
  {
    "id": "windy-1017402518",
    "name": "Locarno: Monti",
    "location": "Locarno, Switzerland",
    "description": "Live webcam from Locarno, Switzerland",
    "source": "windy",
    "windyId": "1017402518",
    "category": "Live",
    "coordinates": {
      "lat": 46.17508,
      "lng": 8.7822
    },
    "enabled": true,
    "lastUpdated": "2026-01-12T16:36:38.065Z"
  },
  {
    "id": "windy-1171033401",
    "name": "La Vinuela: Viñuela - Málaga",
    "location": "La Vinuela, Spain",
    "description": "Live webcam from La Vinuela, Spain",
    "source": "windy",
    "windyId": "1171033401",
    "category": "Live",
    "coordinates": {
      "lat": 36.85847,
      "lng": -4.15541
    },
    "enabled": true,
    "lastUpdated": "2026-01-12T16:36:38.065Z"
  },
  {
    "id": "windy-1565084627",
    "name": "Sant Antoni: Port De Llafranc",
    "location": "Sant Antoni, Spain",
    "description": "Live webcam from Sant Antoni, Spain",
    "source": "windy",
    "windyId": "1565084627",
    "category": "Live",
    "coordinates": {
      "lat": 41.89416,
      "lng": 3.19545
    },
    "enabled": true,
    "lastUpdated": "2026-01-12T16:36:38.065Z"
  },
  {
    "id": "windy-1548114439",
    "name": "Alpago: Lago di Santa Croce - Veneto, Italia: Lega Navale Belluno",
    "location": "Alpago, Italy",
    "description": "Live webcam from Alpago, Italy",
    "source": "windy",
    "windyId": "1548114439",
    "category": "Live",
    "coordinates": {
      "lat": 46.09361,
      "lng": 12.3316
    },
    "enabled": true,
    "lastUpdated": "2026-01-12T16:36:38.065Z"
  },
  {
    "id": "windy-1224459622",
    "name": "Bergen: Torgallmenningen, Norway",
    "location": "Bergen, Norway",
    "description": "Live webcam from Bergen, Norway",
    "source": "windy",
    "windyId": "1224459622",
    "category": "Live",
    "coordinates": {
      "lat": 60.39166,
      "lng": 5.32306
    },
    "enabled": true,
    "lastUpdated": "2026-01-12T16:36:38.065Z"
  },
  {
    "id": "windy-1441356182",
    "name": "Hai Chau › North-east: Núi Thành - Núi Thành Travel",
    "location": "Hai Chau, Vietnam",
    "description": "Live webcam from Hai Chau, Vietnam",
    "source": "windy",
    "windyId": "1441356182",
    "category": "Live",
    "coordinates": {
      "lat": 16.04104,
      "lng": 108.22074
    },
    "enabled": true,
    "lastUpdated": "2026-01-12T16:36:38.065Z"
  },
  {
    "id": "windy-1230040329",
    "name": "Berlin: Town Hall - Rathaus",
    "location": "Berlin, Germany",
    "description": "Live webcam from Berlin, Germany",
    "source": "windy",
    "windyId": "1230040329",
    "category": "Live",
    "coordinates": {
      "lat": 52.51667,
      "lng": 13.4
    },
    "enabled": true,
    "lastUpdated": "2026-01-12T16:36:38.065Z"
  },
  {
    "id": "windy-1697029888",
    "name": "Leukerbad: Gemmi Pass",
    "location": "Leukerbad, Switzerland",
    "description": "Live webcam from Leukerbad, Switzerland",
    "source": "windy",
    "windyId": "1697029888",
    "category": "Live",
    "coordinates": {
      "lat": 46.39771,
      "lng": 7.61564
    },
    "enabled": true,
    "lastUpdated": "2026-01-12T16:36:38.065Z"
  },
  {
    "id": "windy-1018690405",
    "name": "Langenbruck: Deinkick Solarbob Seilpark",
    "location": "Langenbruck, Switzerland",
    "description": "Live webcam from Langenbruck, Switzerland",
    "source": "windy",
    "windyId": "1018690405",
    "category": "Live",
    "coordinates": {
      "lat": 47.34523,
      "lng": 7.7693
    },
    "enabled": true,
    "lastUpdated": "2026-01-12T16:36:38.065Z"
  },
  {
    "id": "windy-1169988637",
    "name": "(Old) Ottawa › North: Parliament Hill",
    "location": "(Old) Ottawa, Canada",
    "description": "Live webcam from (Old) Ottawa, Canada",
    "source": "windy",
    "windyId": "1169988637",
    "category": "Live",
    "coordinates": {
      "lat": 45.42336,
      "lng": -75.69816
    },
    "enabled": true,
    "lastUpdated": "2026-01-12T16:36:38.065Z"
  },
  {
    "id": "windy-1347450910",
    "name": "Stilfs - Stelvio: Passo - WEBCAM",
    "location": "Stilfs - Stelvio, Italy",
    "description": "Live webcam from Stilfs - Stelvio, Italy",
    "source": "windy",
    "windyId": "1347450910",
    "category": "Live",
    "coordinates": {
      "lat": 46.5288,
      "lng": 10.45256
    },
    "enabled": true,
    "lastUpdated": "2026-01-12T16:36:38.065Z"
  },
  {
    "id": "windy-1335179233",
    "name": "Famagusta: Ayia Napa (Cyprus) - Adams Beach Hotel",
    "location": "Famagusta, Cyprus",
    "description": "Live webcam from Famagusta, Cyprus",
    "source": "windy",
    "windyId": "1335179233",
    "category": "Live",
    "coordinates": {
      "lat": 34.98796,
      "lng": 33.96574
    },
    "enabled": true,
    "lastUpdated": "2026-01-12T16:36:38.065Z"
  },
  {
    "id": "windy-1049027676",
    "name": "Aarau: Stadt",
    "location": "Aarau, Switzerland",
    "description": "Live webcam from Aarau, Switzerland",
    "source": "windy",
    "windyId": "1049027676",
    "category": "Live",
    "coordinates": {
      "lat": 47.38906,
      "lng": 8.04746
    },
    "enabled": true,
    "lastUpdated": "2026-01-12T16:36:38.065Z"
  },
  {
    "id": "windy-1234952542",
    "name": "Wassen: A2/E35, Gotthardtunnel, Göschenen in Richtung Süd",
    "location": "Wassen, Switzerland",
    "description": "Live webcam from Wassen, Switzerland",
    "source": "windy",
    "windyId": "1234952542",
    "category": "Live",
    "coordinates": {
      "lat": 46.6948,
      "lng": 8.59576
    },
    "enabled": true,
    "lastUpdated": "2026-01-12T16:36:38.065Z"
  },
  {
    "id": "windy-1292518829",
    "name": "Lenk: i. S. Blick auf Betelberg",
    "location": "Lenk, Switzerland",
    "description": "Live webcam from Lenk, Switzerland",
    "source": "windy",
    "windyId": "1292518829",
    "category": "Live",
    "coordinates": {
      "lat": 46.45438,
      "lng": 7.45341
    },
    "enabled": true,
    "lastUpdated": "2026-01-12T16:36:38.065Z"
  },
  {
    "id": "windy-1371646202",
    "name": "Sion: Vue sur Valère et Tourbillon",
    "location": "Sion, Switzerland",
    "description": "Live webcam from Sion, Switzerland",
    "source": "windy",
    "windyId": "1371646202",
    "category": "Live",
    "coordinates": {
      "lat": 46.22908,
      "lng": 7.35942
    },
    "enabled": true,
    "lastUpdated": "2026-01-12T16:36:38.065Z"
  },
  {
    "id": "windy-1228154082",
    "name": "San Bartolome de Tirajana: Maspalomas Beach \" La Charca",
    "location": "San Bartolome de Tirajana, Spain",
    "description": "Live webcam from San Bartolome de Tirajana, Spain",
    "source": "windy",
    "windyId": "1228154082",
    "category": "Live",
    "coordinates": {
      "lat": 27.73698,
      "lng": -15.59462
    },
    "enabled": true,
    "lastUpdated": "2026-01-12T16:36:38.065Z"
  },
  {
    "id": "windy-1292512970",
    "name": "Waldenburg: Wasserfallen - Bergstation",
    "location": "Waldenburg, Switzerland",
    "description": "Live webcam from Waldenburg, Switzerland",
    "source": "windy",
    "windyId": "1292512970",
    "category": "Live",
    "coordinates": {
      "lat": 47.37364,
      "lng": 7.69993
    },
    "enabled": true,
    "lastUpdated": "2026-01-12T16:36:38.065Z"
  },
  {
    "id": "windy-1183494194",
    "name": "De Panne: Sea promenade beach strand",
    "location": "De Panne, Belgium",
    "description": "Live webcam from De Panne, Belgium",
    "source": "windy",
    "windyId": "1183494194",
    "category": "Live",
    "coordinates": {
      "lat": 51.10385,
      "lng": 2.59071
    },
    "enabled": true,
    "lastUpdated": "2026-01-12T16:36:38.065Z"
  },
  {
    "id": "windy-1214724319",
    "name": "Ponta Delgada: Açores - Ilha São Miguel, Portugal",
    "location": "Ponta Delgada, Portugal",
    "description": "Live webcam from Ponta Delgada, Portugal",
    "source": "windy",
    "windyId": "1214724319",
    "category": "Live",
    "coordinates": {
      "lat": 37.74186,
      "lng": -25.65802
    },
    "enabled": true,
    "lastUpdated": "2026-01-12T16:36:38.065Z"
  },
  {
    "id": "windy-1230305127",
    "name": "Agios Dimitrios: Troodos",
    "location": "Agios Dimitrios, Cyprus",
    "description": "Live webcam from Agios Dimitrios, Cyprus",
    "source": "windy",
    "windyId": "1230305127",
    "category": "Live",
    "coordinates": {
      "lat": 34.92985,
      "lng": 32.87587
    },
    "enabled": true,
    "lastUpdated": "2026-01-12T16:36:38.065Z"
  },
  {
    "id": "windy-1080921163",
    "name": "Kussnacht › South-east: Küssnacht am Rigi - Lake Lucerne",
    "location": "Kussnacht, Switzerland",
    "description": "Live webcam from Kussnacht, Switzerland",
    "source": "windy",
    "windyId": "1080921163",
    "category": "Live",
    "coordinates": {
      "lat": 47.08236,
      "lng": 8.44305
    },
    "enabled": true,
    "lastUpdated": "2026-01-12T16:36:38.065Z"
  },
  {
    "id": "windy-1196582275",
    "name": "Ernen: Schinnerstrasse 96",
    "location": "Ernen, Switzerland",
    "description": "Live webcam from Ernen, Switzerland",
    "source": "windy",
    "windyId": "1196582275",
    "category": "Live",
    "coordinates": {
      "lat": 46.40808,
      "lng": 8.15821
    },
    "enabled": true,
    "lastUpdated": "2026-01-12T16:36:38.065Z"
  },
  {
    "id": "windy-1363622353",
    "name": "Einsiedeln: Klosterplatz",
    "location": "Einsiedeln, Switzerland",
    "description": "Live webcam from Einsiedeln, Switzerland",
    "source": "windy",
    "windyId": "1363622353",
    "category": "Live",
    "coordinates": {
      "lat": 47.12663,
      "lng": 8.7504
    },
    "enabled": true,
    "lastUpdated": "2026-01-12T16:36:38.065Z"
  },
  {
    "id": "windy-1091875657",
    "name": "Brienz: Dorf Fischerbrunnenplatz",
    "location": "Brienz, Switzerland",
    "description": "Live webcam from Brienz, Switzerland",
    "source": "windy",
    "windyId": "1091875657",
    "category": "Live",
    "coordinates": {
      "lat": 46.75466,
      "lng": 8.029
    },
    "enabled": true,
    "lastUpdated": "2026-01-12T16:36:38.065Z"
  },
  {
    "id": "windy-1358599882",
    "name": "Limone Piemonte: Centro Paese",
    "location": "Limone Piemonte, Italy",
    "description": "Live webcam from Limone Piemonte, Italy",
    "source": "windy",
    "windyId": "1358599882",
    "category": "Live",
    "coordinates": {
      "lat": 44.20155,
      "lng": 7.57636
    },
    "enabled": true,
    "lastUpdated": "2026-01-12T16:36:38.065Z"
  },
  {
    "id": "windy-1697035112",
    "name": "Bern: Bellevue Palace Bern",
    "location": "Bern, Switzerland",
    "description": "Live webcam from Bern, Switzerland",
    "source": "windy",
    "windyId": "1697035112",
    "category": "Live",
    "coordinates": {
      "lat": 46.94641,
      "lng": 7.44676
    },
    "enabled": true,
    "lastUpdated": "2026-01-12T16:36:38.065Z"
  },
  {
    "id": "windy-1267447308",
    "name": "Castione della Presolana: Presolana Monte Pora",
    "location": "Castione della Presolana, Italy",
    "description": "Live webcam from Castione della Presolana, Italy",
    "source": "windy",
    "windyId": "1267447308",
    "category": "Live",
    "coordinates": {
      "lat": 45.8922,
      "lng": 10.09867
    },
    "enabled": true,
    "lastUpdated": "2026-01-12T16:36:38.065Z"
  },
  {
    "id": "windy-1269799259",
    "name": "Split: Croatia",
    "location": "Split, Croatia",
    "description": "Live webcam from Split, Croatia",
    "source": "windy",
    "windyId": "1269799259",
    "category": "Live",
    "coordinates": {
      "lat": 43.50891,
      "lng": 16.43915
    },
    "enabled": true,
    "lastUpdated": "2026-01-12T16:36:38.065Z"
  },
  {
    "id": "windy-1183402927",
    "name": "Denver: Live Downtown - weather camera",
    "location": "Denver, United States",
    "description": "Live webcam from Denver, United States",
    "source": "windy",
    "windyId": "1183402927",
    "category": "Live",
    "coordinates": {
      "lat": 39.73719,
      "lng": -104.96372
    },
    "enabled": true,
    "lastUpdated": "2026-01-12T16:36:38.065Z"
  },
  {
    "id": "windy-1226945306",
    "name": "Azzone: Donico Estate - Presolana Monte Pora",
    "location": "Azzone, Italy",
    "description": "Live webcam from Azzone, Italy",
    "source": "windy",
    "windyId": "1226945306",
    "category": "Live",
    "coordinates": {
      "lat": 45.93111,
      "lng": 10.08437
    },
    "enabled": true,
    "lastUpdated": "2026-01-12T16:36:38.065Z"
  },
  {
    "id": "windy-1236334181",
    "name": "Hamar › North-west: Stenfjellhytta",
    "location": "Hamar, Norway",
    "description": "Live webcam from Hamar, Norway",
    "source": "windy",
    "windyId": "1236334181",
    "category": "Live",
    "coordinates": {
      "lat": 60.94124,
      "lng": 11.19187
    },
    "enabled": true,
    "lastUpdated": "2026-01-12T16:36:38.065Z"
  },
  {
    "id": "windy-1697066258",
    "name": "Wildhaus-Alt St. Johann: Alt St. Johann: Chäserrugg",
    "location": "Wildhaus-Alt St. Johann, Switzerland",
    "description": "Live webcam from Wildhaus-Alt St. Johann, Switzerland",
    "source": "windy",
    "windyId": "1697066258",
    "category": "Live",
    "coordinates": {
      "lat": 47.15497,
      "lng": 9.31309
    },
    "enabled": true,
    "lastUpdated": "2026-01-12T16:36:38.065Z"
  },
  {
    "id": "windy-1419107132",
    "name": "Split: Livecam - Riva",
    "location": "Split, Croatia",
    "description": "Live webcam from Split, Croatia",
    "source": "windy",
    "windyId": "1419107132",
    "category": "Live",
    "coordinates": {
      "lat": 43.50754,
      "lng": 16.43967
    },
    "enabled": true,
    "lastUpdated": "2026-01-12T16:36:38.065Z"
  },
  {
    "id": "windy-1015075148",
    "name": "Kandersteg › North: Autoverlad Lötschberg",
    "location": "Kandersteg, Switzerland",
    "description": "Live webcam from Kandersteg, Switzerland",
    "source": "windy",
    "windyId": "1015075148",
    "category": "Live",
    "coordinates": {
      "lat": 46.49591,
      "lng": 7.67198
    },
    "enabled": true,
    "lastUpdated": "2026-01-12T16:36:38.065Z"
  },
  {
    "id": "windy-1292519342",
    "name": "Airolo: Gotthardtunnel A2 - Süd 2",
    "location": "Airolo, Switzerland",
    "description": "Live webcam from Airolo, Switzerland",
    "source": "windy",
    "windyId": "1292519342",
    "category": "Live",
    "coordinates": {
      "lat": 46.52913,
      "lng": 8.61105
    },
    "enabled": true,
    "lastUpdated": "2026-01-12T16:36:38.065Z"
  },
  {
    "id": "windy-1010433724",
    "name": "Schwyz: Mythenregion - Einsiedeln (Hotel Passhöhe Ibergeregg) 2",
    "location": "Schwyz, Switzerland",
    "description": "Live webcam from Schwyz, Switzerland",
    "source": "windy",
    "windyId": "1010433724",
    "category": "Live",
    "coordinates": {
      "lat": 47.01729,
      "lng": 8.73334
    },
    "enabled": true,
    "lastUpdated": "2026-01-12T16:36:38.065Z"
  },
  {
    "id": "windy-1211725853",
    "name": "Berlin: RBB-Fernsehzentrum - Germany",
    "location": "Berlin, Germany",
    "description": "Live webcam from Berlin, Germany",
    "source": "windy",
    "windyId": "1211725853",
    "category": "Live",
    "coordinates": {
      "lat": 52.50899,
      "lng": 13.27453
    },
    "enabled": true,
    "lastUpdated": "2026-01-12T16:36:38.065Z"
  },
  {
    "id": "windy-1022924078",
    "name": "Grindelwald: Grindelwald - Dorf - Wetterhorn",
    "location": "Grindelwald, Switzerland",
    "description": "Live webcam from Grindelwald, Switzerland",
    "source": "windy",
    "windyId": "1022924078",
    "category": "Live",
    "coordinates": {
      "lat": 46.61938,
      "lng": 8.02483
    },
    "enabled": true,
    "lastUpdated": "2026-01-12T16:36:38.065Z"
  },
  {
    "id": "windy-1332931140",
    "name": "Enontekio: Tie21 Enontekiö, Kilpisjarvi - Saanatunturi",
    "location": "Enontekio, Finland",
    "description": "Live webcam from Enontekio, Finland",
    "source": "windy",
    "windyId": "1332931140",
    "category": "Live",
    "coordinates": {
      "lat": 69.01711,
      "lng": 20.87385
    },
    "enabled": true,
    "lastUpdated": "2026-01-12T16:36:38.065Z"
  },
  {
    "id": "windy-1116849865",
    "name": "Unterageri: Aegeriwetter",
    "location": "Unterageri, Switzerland",
    "description": "Live webcam from Unterageri, Switzerland",
    "source": "windy",
    "windyId": "1116849865",
    "category": "Live",
    "coordinates": {
      "lat": 47.13154,
      "lng": 8.58424
    },
    "enabled": true,
    "lastUpdated": "2026-01-12T16:36:38.065Z"
  },
  {
    "id": "windy-1437426549",
    "name": "Boltigen › North: Eschi",
    "location": "Boltigen, Switzerland",
    "description": "Live webcam from Boltigen, Switzerland",
    "source": "windy",
    "windyId": "1437426549",
    "category": "Live",
    "coordinates": {
      "lat": 46.61019,
      "lng": 7.37028
    },
    "enabled": true,
    "lastUpdated": "2026-01-12T16:36:38.065Z"
  },
  {
    "id": "windy-1248188708",
    "name": "Chessy: Disney Village",
    "location": "Chessy, France",
    "description": "Live webcam from Chessy, France",
    "source": "windy",
    "windyId": "1248188708",
    "category": "Live",
    "coordinates": {
      "lat": 48.87273,
      "lng": 2.77654
    },
    "enabled": true,
    "lastUpdated": "2026-01-12T16:36:38.065Z"
  },
  {
    "id": "windy-1278943657",
    "name": "Utqiaġvik › North-east: Barrow",
    "location": "Utqiaġvik, United States",
    "description": "Live webcam from Utqiaġvik, United States",
    "source": "windy",
    "windyId": "1278943657",
    "category": "Live",
    "coordinates": {
      "lat": 71.29245,
      "lng": -156.78755
    },
    "enabled": true,
    "lastUpdated": "2026-01-12T16:36:38.065Z"
  },
  {
    "id": "windy-1448249352",
    "name": "Elati › North-west: Pyli Municipality › North-West",
    "location": "Elati, Greece",
    "description": "Live webcam from Elati, Greece",
    "source": "windy",
    "windyId": "1448249352",
    "category": "Live",
    "coordinates": {
      "lat": 39.50159,
      "lng": 21.53789
    },
    "enabled": true,
    "lastUpdated": "2026-01-12T16:36:38.065Z"
  },
  {
    "id": "windy-1411001849",
    "name": "Nuuk: Qinngorput",
    "location": "Nuuk, Greenland",
    "description": "Live webcam from Nuuk, Greenland",
    "source": "windy",
    "windyId": "1411001849",
    "category": "Live",
    "coordinates": {
      "lat": 64.16491,
      "lng": -51.67673
    },
    "enabled": true,
    "lastUpdated": "2026-01-12T16:36:38.065Z"
  },
  {
    "id": "windy-1188507764",
    "name": "Graz › West: Kunsthaus Graz",
    "location": "Graz, Austria",
    "description": "Live webcam from Graz, Austria",
    "source": "windy",
    "windyId": "1188507764",
    "category": "Live",
    "coordinates": {
      "lat": 47.06667,
      "lng": 15.45
    },
    "enabled": true,
    "lastUpdated": "2026-01-12T16:36:38.065Z"
  },
  {
    "id": "windy-1057567313",
    "name": "Schlatt: Unterschlatt: Appenzell Wetter",
    "location": "Schlatt, Switzerland",
    "description": "Live webcam from Schlatt, Switzerland",
    "source": "windy",
    "windyId": "1057567313",
    "category": "Live",
    "coordinates": {
      "lat": 47.35672,
      "lng": 9.39688
    },
    "enabled": true,
    "lastUpdated": "2026-01-12T16:36:38.065Z"
  },
  {
    "id": "windy-1361788337",
    "name": "Besiktas: 15 Temmuz Şehitler Köprüsü",
    "location": "Besiktas, Turkey",
    "description": "Live webcam from Besiktas, Turkey",
    "source": "windy",
    "windyId": "1361788337",
    "category": "Live",
    "coordinates": {
      "lat": 41.05758,
      "lng": 29.01693
    },
    "enabled": true,
    "lastUpdated": "2026-01-12T16:36:38.065Z"
  },
  {
    "id": "windy-1383580205",
    "name": "Brzegi: Morskie Oko - Rysy",
    "location": "Brzegi, Poland",
    "description": "Live webcam from Brzegi, Poland",
    "source": "windy",
    "windyId": "1383580205",
    "category": "Live",
    "coordinates": {
      "lat": 49.20078,
      "lng": 20.07236
    },
    "enabled": true,
    "lastUpdated": "2026-01-12T16:36:38.065Z"
  },
  {
    "id": "windy-1133188503",
    "name": "Davos: 180° Panorama mit Jakobshorn",
    "location": "Davos, Switzerland",
    "description": "Live webcam from Davos, Switzerland",
    "source": "windy",
    "windyId": "1133188503",
    "category": "Live",
    "coordinates": {
      "lat": 46.79838,
      "lng": 9.82179
    },
    "enabled": true,
    "lastUpdated": "2026-01-12T16:36:38.065Z"
  },
  {
    "id": "windy-1444648696",
    "name": "Haukeliseter › South-east: Haukeliseter Fjellstue",
    "location": "Haukeliseter, Norway",
    "description": "Live webcam from Haukeliseter, Norway",
    "source": "windy",
    "windyId": "1444648696",
    "category": "Live",
    "coordinates": {
      "lat": 59.82381,
      "lng": 7.19404
    },
    "enabled": true,
    "lastUpdated": "2026-01-12T16:36:38.065Z"
  },
  {
    "id": "windy-1252677414",
    "name": "Sellin: Seebrücke Ostseebad - Insel Rügen",
    "location": "Sellin, Germany",
    "description": "Live webcam from Sellin, Germany",
    "source": "windy",
    "windyId": "1252677414",
    "category": "Live",
    "coordinates": {
      "lat": 54.38327,
      "lng": 13.69849
    },
    "enabled": true,
    "lastUpdated": "2026-01-12T16:36:38.065Z"
  },
  {
    "id": "windy-1697039466",
    "name": "Stallikon: Uetliberg",
    "location": "Stallikon, Switzerland",
    "description": "Live webcam from Stallikon, Switzerland",
    "source": "windy",
    "windyId": "1697039466",
    "category": "Live",
    "coordinates": {
      "lat": 47.35148,
      "lng": 8.49024
    },
    "enabled": true,
    "lastUpdated": "2026-01-12T16:36:38.065Z"
  },
  {
    "id": "windy-1292518534",
    "name": "Koniz",
    "location": "Koniz, Switzerland",
    "description": "Live webcam from Koniz, Switzerland",
    "source": "windy",
    "windyId": "1292518534",
    "category": "Live",
    "coordinates": {
      "lat": 46.92272,
      "lng": 7.41363
    },
    "enabled": true,
    "lastUpdated": "2026-01-12T16:36:38.065Z"
  },
  {
    "id": "windy-1448989422",
    "name": "Minden: North Rhine-Westphalia, Germany",
    "location": "Minden, Germany",
    "description": "Live webcam from Minden, Germany",
    "source": "windy",
    "windyId": "1448989422",
    "category": "Live",
    "coordinates": {
      "lat": 52.28815,
      "lng": 8.91669
    },
    "enabled": true,
    "lastUpdated": "2026-01-12T16:36:38.065Z"
  },
  {
    "id": "windy-1345327762",
    "name": "Prague: Wenceslas Square",
    "location": "Prague, Czechia",
    "description": "Live webcam from Prague, Czechia",
    "source": "windy",
    "windyId": "1345327762",
    "category": "Live",
    "coordinates": {
      "lat": 50.08112,
      "lng": 14.42852
    },
    "enabled": true,
    "lastUpdated": "2026-01-12T16:36:38.065Z"
  },
  {
    "id": "windy-1099128193",
    "name": "Filisur: Bahnhof",
    "location": "Filisur, Switzerland",
    "description": "Live webcam from Filisur, Switzerland",
    "source": "windy",
    "windyId": "1099128193",
    "category": "Live",
    "coordinates": {
      "lat": 46.675,
      "lng": 9.68428
    },
    "enabled": true,
    "lastUpdated": "2026-01-12T16:36:38.065Z"
  },
  {
    "id": "windy-1697035262",
    "name": "La Chaux-de-Fonds",
    "location": "La Chaux-de-Fonds, Switzerland",
    "description": "Live webcam from La Chaux-de-Fonds, Switzerland",
    "source": "windy",
    "windyId": "1697035262",
    "category": "Live",
    "coordinates": {
      "lat": 47.10234,
      "lng": 6.82873
    },
    "enabled": true,
    "lastUpdated": "2026-01-12T16:36:38.065Z"
  },
  {
    "id": "windy-1027160200",
    "name": "Koniz: Berne - Bantiger TV Tower - Grauholz",
    "location": "Koniz, Switzerland",
    "description": "Live webcam from Koniz, Switzerland",
    "source": "windy",
    "windyId": "1027160200",
    "category": "Live",
    "coordinates": {
      "lat": 46.93311,
      "lng": 7.42972
    },
    "enabled": true,
    "lastUpdated": "2026-01-12T16:36:38.065Z"
  },
  {
    "id": "windy-1126539413",
    "name": "Beatenberg: Chalet Birkli",
    "location": "Beatenberg, Switzerland",
    "description": "Live webcam from Beatenberg, Switzerland",
    "source": "windy",
    "windyId": "1126539413",
    "category": "Live",
    "coordinates": {
      "lat": 46.70039,
      "lng": 7.79834
    },
    "enabled": true,
    "lastUpdated": "2026-01-12T16:36:38.065Z"
  },
  {
    "id": "windy-1211037067",
    "name": "Kiel: Schwedenkai",
    "location": "Kiel, Germany",
    "description": "Live webcam from Kiel, Germany",
    "source": "windy",
    "windyId": "1211037067",
    "category": "Live",
    "coordinates": {
      "lat": 54.31805,
      "lng": 10.1357
    },
    "enabled": true,
    "lastUpdated": "2026-01-12T16:36:38.065Z"
  },
  {
    "id": "windy-1183133145",
    "name": "Vienna: Rathaus",
    "location": "Vienna, Austria",
    "description": "Live webcam from Vienna, Austria",
    "source": "windy",
    "windyId": "1183133145",
    "category": "Live",
    "coordinates": {
      "lat": 48.21029,
      "lng": 16.36127
    },
    "enabled": true,
    "lastUpdated": "2026-01-12T16:36:38.065Z"
  },
  {
    "id": "windy-1614683737",
    "name": "St. Stephan: Chalet/Ferienhaus Hof Semiramis, Berner Oberland, Lenk-Simmental",
    "location": "St. Stephan, Switzerland",
    "description": "Live webcam from St. Stephan, Switzerland",
    "source": "windy",
    "windyId": "1614683737",
    "category": "Live",
    "coordinates": {
      "lat": 46.51969,
      "lng": 7.38511
    },
    "enabled": true,
    "lastUpdated": "2026-01-12T16:36:38.065Z"
  },
  {
    "id": "windy-1622904818",
    "name": "Oukaimeden › East",
    "location": "Oukaimeden, Morocco",
    "description": "Live webcam from Oukaimeden, Morocco",
    "source": "windy",
    "windyId": "1622904818",
    "category": "Live",
    "coordinates": {
      "lat": 31.2062,
      "lng": -7.86607
    },
    "enabled": true,
    "lastUpdated": "2026-01-12T16:36:38.065Z"
  },
  {
    "id": "windy-1531224494",
    "name": "Carvoeiro: Faro, Portogallo: Praia de",
    "location": "Carvoeiro, Portugal",
    "description": "Live webcam from Carvoeiro, Portugal",
    "source": "windy",
    "windyId": "1531224494",
    "category": "Live",
    "coordinates": {
      "lat": 37.09619,
      "lng": -8.47194
    },
    "enabled": true,
    "lastUpdated": "2026-01-12T16:36:38.065Z"
  },
  {
    "id": "windy-1017402670",
    "name": "Sankt Moritz: St. Moritz - Corviglia",
    "location": "Sankt Moritz, Switzerland",
    "description": "Live webcam from Sankt Moritz, Switzerland",
    "source": "windy",
    "windyId": "1017402670",
    "category": "Live",
    "coordinates": {
      "lat": 46.50769,
      "lng": 9.81925
    },
    "enabled": true,
    "lastUpdated": "2026-01-12T16:36:38.065Z"
  },
  {
    "id": "windy-1206538953",
    "name": "Oulu: Oulun kauppatori (Torinranta)",
    "location": "Oulu, Finland",
    "description": "Live webcam from Oulu, Finland",
    "source": "windy",
    "windyId": "1206538953",
    "category": "Live",
    "coordinates": {
      "lat": 65.01352,
      "lng": 25.46347
    },
    "enabled": true,
    "lastUpdated": "2026-01-12T16:36:38.065Z"
  },
  {
    "id": "windy-1246281770",
    "name": "Lesconil › East: Nautical Center and Outdoor C.N.P.A. - Plage du steir Nibilic",
    "location": "Lesconil, France",
    "description": "Live webcam from Lesconil, France",
    "source": "windy",
    "windyId": "1246281770",
    "category": "Live",
    "coordinates": {
      "lat": 47.79817,
      "lng": -4.21297
    },
    "enabled": true,
    "lastUpdated": "2026-01-12T16:36:38.065Z"
  },
  {
    "id": "windy-1109590430",
    "name": "Wildhaus-Alt St. Johann: Iltios - Chäserrugg - Churfirsten",
    "location": "Wildhaus-Alt St. Johann, Switzerland",
    "description": "Live webcam from Wildhaus-Alt St. Johann, Switzerland",
    "source": "windy",
    "windyId": "1109590430",
    "category": "Live",
    "coordinates": {
      "lat": 47.18528,
      "lng": 9.3119
    },
    "enabled": true,
    "lastUpdated": "2026-01-12T16:36:38.065Z"
  },
  {
    "id": "windy-1017402563",
    "name": "Paradiso: Lugano",
    "location": "Paradiso, Switzerland",
    "description": "Live webcam from Paradiso, Switzerland",
    "source": "windy",
    "windyId": "1017402563",
    "category": "Live",
    "coordinates": {
      "lat": 45.98852,
      "lng": 8.95027
    },
    "enabled": true,
    "lastUpdated": "2026-01-12T16:36:38.065Z"
  },
  {
    "id": "windy-1342647224",
    "name": "Vinadio: Santuario di Sant’Anna di",
    "location": "Vinadio, Italy",
    "description": "Live webcam from Vinadio, Italy",
    "source": "windy",
    "windyId": "1342647224",
    "category": "Live",
    "coordinates": {
      "lat": 44.23162,
      "lng": 7.10646
    },
    "enabled": true,
    "lastUpdated": "2026-01-12T16:36:38.065Z"
  },
  {
    "id": "windy-1049529921",
    "name": "Capriasca: Lugano San Salvatore",
    "location": "Capriasca, Switzerland",
    "description": "Live webcam from Capriasca, Switzerland",
    "source": "windy",
    "windyId": "1049529921",
    "category": "Live",
    "coordinates": {
      "lat": 46.06933,
      "lng": 8.97697
    },
    "enabled": true,
    "lastUpdated": "2026-01-12T16:36:38.065Z"
  },
  {
    "id": "windy-1186264357",
    "name": "Urbar: Koblenz - Deutsches Eck",
    "location": "Urbar, Germany",
    "description": "Live webcam from Urbar, Germany",
    "source": "windy",
    "windyId": "1186264357",
    "category": "Live",
    "coordinates": {
      "lat": 50.36567,
      "lng": 7.61432
    },
    "enabled": true,
    "lastUpdated": "2026-01-12T16:36:38.065Z"
  },
  {
    "id": "windy-1288116500",
    "name": "Turin: vista verso sud",
    "location": "Turin, Italy",
    "description": "Live webcam from Turin, Italy",
    "source": "windy",
    "windyId": "1288116500",
    "category": "Live",
    "coordinates": {
      "lat": 45.08067,
      "lng": 7.69494
    },
    "enabled": true,
    "lastUpdated": "2026-01-12T16:36:38.065Z"
  },
  {
    "id": "windy-1292514964",
    "name": "Wildhaus: Oberdorf",
    "location": "Wildhaus, Switzerland",
    "description": "Live webcam from Wildhaus, Switzerland",
    "source": "windy",
    "windyId": "1292514964",
    "category": "Live",
    "coordinates": {
      "lat": 47.19198,
      "lng": 9.34537
    },
    "enabled": true,
    "lastUpdated": "2026-01-12T16:36:38.065Z"
  },
  {
    "id": "windy-1333173050",
    "name": "Ecroignard › South-west: Grand Baie › South-West",
    "location": "Ecroignard, Mauritius",
    "description": "Live webcam from Ecroignard, Mauritius",
    "source": "windy",
    "windyId": "1333173050",
    "category": "Live",
    "coordinates": {
      "lat": -20.23881,
      "lng": 57.74524
    },
    "enabled": true,
    "lastUpdated": "2026-01-12T16:36:38.065Z"
  },
  {
    "id": "windy-1234951380",
    "name": "Diomede: Dateline Cam, Little",
    "location": "Diomede, United States",
    "description": "Live webcam from Diomede, United States",
    "source": "windy",
    "windyId": "1234951380",
    "category": "Live",
    "coordinates": {
      "lat": 65.75887,
      "lng": -168.95112
    },
    "enabled": true,
    "lastUpdated": "2026-01-12T16:36:38.065Z"
  },
  {
    "id": "windy-1202916851",
    "name": "Zingst › North: Fischland Darß",
    "location": "Zingst, Germany",
    "description": "Live webcam from Zingst, Germany",
    "source": "windy",
    "windyId": "1202916851",
    "category": "Live",
    "coordinates": {
      "lat": 54.44119,
      "lng": 12.68154
    },
    "enabled": true,
    "lastUpdated": "2026-01-12T16:36:38.065Z"
  },
  {
    "id": "windy-1232544942",
    "name": "Cambrils: Hafen",
    "location": "Cambrils, Spain",
    "description": "Live webcam from Cambrils, Spain",
    "source": "windy",
    "windyId": "1232544942",
    "category": "Live",
    "coordinates": {
      "lat": 41.06607,
      "lng": 1.06411
    },
    "enabled": true,
    "lastUpdated": "2026-01-12T16:36:38.065Z"
  },
  {
    "id": "windy-1449602996",
    "name": "Prague › North-east: Košíře",
    "location": "Prague, Czechia",
    "description": "Live webcam from Prague, Czechia",
    "source": "windy",
    "windyId": "1449602996",
    "category": "Live",
    "coordinates": {
      "lat": 50.06385,
      "lng": 14.38247
    },
    "enabled": true,
    "lastUpdated": "2026-01-12T16:36:38.065Z"
  },
  {
    "id": "windy-1292513693",
    "name": "Engelberg: Titlis Jochpass",
    "location": "Engelberg, Switzerland",
    "description": "Live webcam from Engelberg, Switzerland",
    "source": "windy",
    "windyId": "1292513693",
    "category": "Live",
    "coordinates": {
      "lat": 46.77996,
      "lng": 8.39009
    },
    "enabled": true,
    "lastUpdated": "2026-01-12T16:36:38.065Z"
  },
  {
    "id": "windy-1231761506",
    "name": "Sarnen: Langis Glaubenberg",
    "location": "Sarnen, Switzerland",
    "description": "Live webcam from Sarnen, Switzerland",
    "source": "windy",
    "windyId": "1231761506",
    "category": "Live",
    "coordinates": {
      "lat": 46.89893,
      "lng": 8.12867
    },
    "enabled": true,
    "lastUpdated": "2026-01-12T16:36:38.065Z"
  },
  {
    "id": "windy-1470649726",
    "name": "Vrbno pod Pradedem: Praděd - Czech Republic",
    "location": "Vrbno pod Pradedem, Czechia",
    "description": "Live webcam from Vrbno pod Pradedem, Czechia",
    "source": "windy",
    "windyId": "1470649726",
    "category": "Live",
    "coordinates": {
      "lat": 50.08309,
      "lng": 17.23077
    },
    "enabled": true,
    "lastUpdated": "2026-01-12T16:36:38.065Z"
  },
  {
    "id": "windy-1197912060",
    "name": "Osterode am Harz: Neustädter Tor - Innenstadtring",
    "location": "Osterode am Harz, Germany",
    "description": "Live webcam from Osterode am Harz, Germany",
    "source": "windy",
    "windyId": "1197912060",
    "category": "Live",
    "coordinates": {
      "lat": 51.72549,
      "lng": 10.25102
    },
    "enabled": true,
    "lastUpdated": "2026-01-12T16:36:38.065Z"
  },
  {
    "id": "windy-1292518465",
    "name": "Fluelen: Windsurfing Center am Urnersee",
    "location": "Fluelen, Switzerland",
    "description": "Live webcam from Fluelen, Switzerland",
    "source": "windy",
    "windyId": "1292518465",
    "category": "Live",
    "coordinates": {
      "lat": 46.91504,
      "lng": 8.62303
    },
    "enabled": true,
    "lastUpdated": "2026-01-12T16:36:38.065Z"
  },
  {
    "id": "windy-1447838456",
    "name": "Ny-Alesund › North-east: Kongsfjorden",
    "location": "Ny-Alesund, Norway",
    "description": "Live webcam from Ny-Alesund, Norway",
    "source": "windy",
    "windyId": "1447838456",
    "category": "Live",
    "coordinates": {
      "lat": 78.90683,
      "lng": 11.88892
    },
    "enabled": true,
    "lastUpdated": "2026-01-12T16:36:38.065Z"
  },
  {
    "id": "windy-1494608365",
    "name": "Oludeniz: Belcekiz Beach Club - Ölüdeniz Plajı - Belcekiz Beach Hotel - Paragliding Oludeniz Turkey - Fethiye",
    "location": "unknown, Turkey",
    "description": "Live webcam from unknown, Turkey",
    "source": "windy",
    "windyId": "1494608365",
    "category": "Live",
    "coordinates": {
      "lat": 36.54598,
      "lng": 29.12358
    },
    "enabled": true,
    "lastUpdated": "2026-01-12T16:36:38.065Z"
  },
  {
    "id": "windy-1349746206",
    "name": "Ravenna: Piazza del Popolo",
    "location": "Ravenna, Italy",
    "description": "Live webcam from Ravenna, Italy",
    "source": "windy",
    "windyId": "1349746206",
    "category": "Live",
    "coordinates": {
      "lat": 44.41778,
      "lng": 12.19975
    },
    "enabled": true,
    "lastUpdated": "2026-01-12T16:36:38.065Z"
  },
  {
    "id": "windy-1576077452",
    "name": "Rheinwald › West: Splügen",
    "location": "Rheinwald, Switzerland",
    "description": "Live webcam from Rheinwald, Switzerland",
    "source": "windy",
    "windyId": "1576077452",
    "category": "Live",
    "coordinates": {
      "lat": 46.55385,
      "lng": 9.32374
    },
    "enabled": true,
    "lastUpdated": "2026-01-12T16:36:38.065Z"
  },
  {
    "id": "windy-1200421194",
    "name": "Sirmione",
    "location": "Sirmione, Italy",
    "description": "Live webcam from Sirmione, Italy",
    "source": "windy",
    "windyId": "1200421194",
    "category": "Live",
    "coordinates": {
      "lat": 45.49263,
      "lng": 10.60824
    },
    "enabled": true,
    "lastUpdated": "2026-01-12T16:36:38.065Z"
  },
  {
    "id": "windy-1292515286",
    "name": "Innertkirchen: Sustenpasssee",
    "location": "Innertkirchen, Switzerland",
    "description": "Live webcam from Innertkirchen, Switzerland",
    "source": "windy",
    "windyId": "1292515286",
    "category": "Live",
    "coordinates": {
      "lat": 46.72951,
      "lng": 8.44793
    },
    "enabled": true,
    "lastUpdated": "2026-01-12T16:36:38.065Z"
  },
  {
    "id": "windy-1131369265",
    "name": "Interlaken: Höhematte",
    "location": "Interlaken, Switzerland",
    "description": "Live webcam from Interlaken, Switzerland",
    "source": "windy",
    "windyId": "1131369265",
    "category": "Live",
    "coordinates": {
      "lat": 46.68448,
      "lng": 7.86153
    },
    "enabled": true,
    "lastUpdated": "2026-01-12T16:36:38.065Z"
  },
  {
    "id": "windy-1697030222",
    "name": "Murten: Lake Murten",
    "location": "Murten, Switzerland",
    "description": "Live webcam from Murten, Switzerland",
    "source": "windy",
    "windyId": "1697030222",
    "category": "Live",
    "coordinates": {
      "lat": 46.92814,
      "lng": 7.11526
    },
    "enabled": true,
    "lastUpdated": "2026-01-12T16:36:38.065Z"
  },
  {
    "id": "windy-1109590185",
    "name": "Melchsee-Frutt",
    "location": "Melchsee-Frutt, Switzerland",
    "description": "Live webcam from Melchsee-Frutt, Switzerland",
    "source": "windy",
    "windyId": "1109590185",
    "category": "Live",
    "coordinates": {
      "lat": 46.77335,
      "lng": 8.26974
    },
    "enabled": true,
    "lastUpdated": "2026-01-12T16:36:38.065Z"
  },
  {
    "id": "windy-1311326041",
    "name": "Benalmadena",
    "location": "Benalmadena, Spain",
    "description": "Live webcam from Benalmadena, Spain",
    "source": "windy",
    "windyId": "1311326041",
    "category": "Live",
    "coordinates": {
      "lat": 36.60131,
      "lng": -4.53133
    },
    "enabled": true,
    "lastUpdated": "2026-01-12T16:36:38.065Z"
  },
  {
    "id": "windy-1295524534",
    "name": "Klisoura: Kleisoura Kastorias 1180m",
    "location": "Klisoura, Greece",
    "description": "Live webcam from Klisoura, Greece",
    "source": "windy",
    "windyId": "1295524534",
    "category": "Live",
    "coordinates": {
      "lat": 40.53516,
      "lng": 21.46954
    },
    "enabled": true,
    "lastUpdated": "2026-01-12T16:36:38.065Z"
  },
  {
    "id": "windy-1431719319",
    "name": "Primosten › South-west: Mala Raduča",
    "location": "Primosten, Croatia",
    "description": "Live webcam from Primosten, Croatia",
    "source": "windy",
    "windyId": "1431719319",
    "category": "Live",
    "coordinates": {
      "lat": 43.58635,
      "lng": 15.92251
    },
    "enabled": true,
    "lastUpdated": "2026-01-12T16:36:38.065Z"
  },
  {
    "id": "windy-1201621887",
    "name": "Belluno › North-west: Castion Di",
    "location": "Belluno, Italy",
    "description": "Live webcam from Belluno, Italy",
    "source": "windy",
    "windyId": "1201621887",
    "category": "Live",
    "coordinates": {
      "lat": 46.12722,
      "lng": 12.22431
    },
    "enabled": true,
    "lastUpdated": "2026-01-12T16:36:38.065Z"
  },
  {
    "id": "windy-1380562366",
    "name": "Mogan › East: Anfi Del Mar",
    "location": "Mogan, Spain",
    "description": "Live webcam from Mogan, Spain",
    "source": "windy",
    "windyId": "1380562366",
    "category": "Live",
    "coordinates": {
      "lat": 27.77232,
      "lng": -15.69826
    },
    "enabled": true,
    "lastUpdated": "2026-01-12T16:36:38.065Z"
  },
  {
    "id": "windy-1252951362",
    "name": "Brenner - Brennero › South: A22/E45 Brennerautobahn − Autostrada-del-Brenn., Richtung/direction: Bozen-Bolzano [km 1,00",
    "location": "Brenner - Brennero, Italy",
    "description": "Live webcam from Brenner - Brennero, Italy",
    "source": "windy",
    "windyId": "1252951362",
    "category": "Live",
    "coordinates": {
      "lat": 46.99675,
      "lng": 11.50221
    },
    "enabled": true,
    "lastUpdated": "2026-01-12T16:36:38.065Z"
  },
  {
    "id": "windy-1232134737",
    "name": "Goschenen: Göscheneralp",
    "location": "Goschenen, Switzerland",
    "description": "Live webcam from Goschenen, Switzerland",
    "source": "windy",
    "windyId": "1232134737",
    "category": "Live",
    "coordinates": {
      "lat": 46.65354,
      "lng": 8.51788
    },
    "enabled": true,
    "lastUpdated": "2026-01-12T16:36:38.065Z"
  },
  {
    "id": "windy-1697038297",
    "name": "La Brevine: Lac des Taillères",
    "location": "La Brevine, Switzerland",
    "description": "Live webcam from La Brevine, Switzerland",
    "source": "windy",
    "windyId": "1697038297",
    "category": "Live",
    "coordinates": {
      "lat": 46.97104,
      "lng": 6.58626
    },
    "enabled": true,
    "lastUpdated": "2026-01-12T16:36:38.065Z"
  },
  {
    "id": "windy-1180871666",
    "name": "Mar del Plata › South-east",
    "location": "Mar del Plata, Argentina",
    "description": "Live webcam from Mar del Plata, Argentina",
    "source": "windy",
    "windyId": "1180871666",
    "category": "Live",
    "coordinates": {
      "lat": -38.01313,
      "lng": -57.5328
    },
    "enabled": true,
    "lastUpdated": "2026-01-12T16:36:38.065Z"
  },
  {
    "id": "windy-1414268105",
    "name": "Jackson: Town Square Shoot-Out",
    "location": "Jackson, United States",
    "description": "Live webcam from Jackson, United States",
    "source": "windy",
    "windyId": "1414268105",
    "category": "Live",
    "coordinates": {
      "lat": 43.48023,
      "lng": -110.76112
    },
    "enabled": true,
    "lastUpdated": "2026-01-12T16:36:38.065Z"
  },
  {
    "id": "windy-1045500031",
    "name": "Degersheim",
    "location": "Degersheim, Switzerland",
    "description": "Live webcam from Degersheim, Switzerland",
    "source": "windy",
    "windyId": "1045500031",
    "category": "Live",
    "coordinates": {
      "lat": 47.37263,
      "lng": 9.18377
    },
    "enabled": true,
    "lastUpdated": "2026-01-12T16:36:38.065Z"
  },
  {
    "id": "windy-1068224396",
    "name": "Schwyz: Talkessel",
    "location": "Schwyz, Switzerland",
    "description": "Live webcam from Schwyz, Switzerland",
    "source": "windy",
    "windyId": "1068224396",
    "category": "Live",
    "coordinates": {
      "lat": 47.02513,
      "lng": 8.66761
    },
    "enabled": true,
    "lastUpdated": "2026-01-12T16:36:38.065Z"
  },
  {
    "id": "windy-1185292026",
    "name": "Muir Beach › South: Ocean Beach",
    "location": "Muir Beach, United States",
    "description": "Live webcam from Muir Beach, United States",
    "source": "windy",
    "windyId": "1185292026",
    "category": "Live",
    "coordinates": {
      "lat": 37.86032,
      "lng": -122.57766
    },
    "enabled": true,
    "lastUpdated": "2026-01-12T16:36:38.065Z"
  },
  {
    "id": "windy-1291892944",
    "name": "Belluno: COL VISENTIN 1764 slm",
    "location": "Belluno, Italy",
    "description": "Live webcam from Belluno, Italy",
    "source": "windy",
    "windyId": "1291892944",
    "category": "Live",
    "coordinates": {
      "lat": 46.05627,
      "lng": 12.28219
    },
    "enabled": true,
    "lastUpdated": "2026-01-12T16:36:38.065Z"
  },
  {
    "id": "windy-1311692030",
    "name": "Loano",
    "location": "Loano, Italy",
    "description": "Live webcam from Loano, Italy",
    "source": "windy",
    "windyId": "1311692030",
    "category": "Live",
    "coordinates": {
      "lat": 44.12448,
      "lng": 8.25794
    },
    "enabled": true,
    "lastUpdated": "2026-01-12T16:36:38.065Z"
  },
  {
    "id": "windy-1665493001",
    "name": "North Cape",
    "location": "North Cape, Norway",
    "description": "Live webcam from North Cape, Norway",
    "source": "windy",
    "windyId": "1665493001",
    "category": "Live",
    "coordinates": {
      "lat": 71.17001,
      "lng": 25.7837
    },
    "enabled": true,
    "lastUpdated": "2026-01-12T16:36:38.065Z"
  },
  {
    "id": "windy-1203786305",
    "name": "Nea Penteli › South-east: Νέα Πεντέλη",
    "location": "unknown, Greece",
    "description": "Live webcam from unknown, Greece",
    "source": "windy",
    "windyId": "1203786305",
    "category": "Live",
    "coordinates": {
      "lat": 38.05889,
      "lng": 23.86136
    },
    "enabled": true,
    "lastUpdated": "2026-01-12T16:36:38.065Z"
  },
  {
    "id": "windy-1234953077",
    "name": "Tiruvannamalai: Arunachala Hill and Temple",
    "location": "Tiruvannamalai, India",
    "description": "Live webcam from Tiruvannamalai, India",
    "source": "windy",
    "windyId": "1234953077",
    "category": "Live",
    "coordinates": {
      "lat": 12.24056,
      "lng": 79.05757
    },
    "enabled": true,
    "lastUpdated": "2026-01-12T16:36:38.065Z"
  },
  {
    "id": "windy-1490378791",
    "name": "San Vito di Cadore › North: San Vito - Venetien, Italien: centro paese",
    "location": "San Vito di Cadore, Italy",
    "description": "Live webcam from San Vito di Cadore, Italy",
    "source": "windy",
    "windyId": "1490378791",
    "category": "Live",
    "coordinates": {
      "lat": 46.46278,
      "lng": 12.20608
    },
    "enabled": true,
    "lastUpdated": "2026-01-12T16:36:38.065Z"
  },
  {
    "id": "windy-1229546637",
    "name": "Naifaru: Kuredu Island Resort & Spa",
    "location": "Naifaru, Maldives",
    "description": "Live webcam from Naifaru, Maldives",
    "source": "windy",
    "windyId": "1229546637",
    "category": "Live",
    "coordinates": {
      "lat": 5.54924,
      "lng": 73.46516
    },
    "enabled": true,
    "lastUpdated": "2026-01-12T16:36:38.065Z"
  },
  {
    "id": "windy-1431982296",
    "name": "Primosten › North-west: Šibensko-Kniniska, Croatia: VRULJE 38",
    "location": "Primosten, Croatia",
    "description": "Live webcam from Primosten, Croatia",
    "source": "windy",
    "windyId": "1431982296",
    "category": "Live",
    "coordinates": {
      "lat": 43.58766,
      "lng": 15.92353
    },
    "enabled": true,
    "lastUpdated": "2026-01-12T16:36:38.065Z"
  },
  {
    "id": "windy-1280694868",
    "name": "Medulin: Osnovna škola",
    "location": "Medulin, Croatia",
    "description": "Live webcam from Medulin, Croatia",
    "source": "windy",
    "windyId": "1280694868",
    "category": "Live",
    "coordinates": {
      "lat": 44.8253,
      "lng": 13.9321
    },
    "enabled": true,
    "lastUpdated": "2026-01-12T16:36:38.065Z"
  },
  {
    "id": "windy-1296561174",
    "name": "Κ. Παύλιανης › South: Pavliani › South: Καταφύγιο − Οίτη",
    "location": "unknown, Greece",
    "description": "Live webcam from unknown, Greece",
    "source": "windy",
    "windyId": "1296561174",
    "category": "Live",
    "coordinates": {
      "lat": 38.70696,
      "lng": 22.30471
    },
    "enabled": true,
    "lastUpdated": "2026-01-12T16:36:38.065Z"
  },
  {
    "id": "windy-1342347666",
    "name": "Polnicka › North: Velké Dářko",
    "location": "Polnicka, Czechia",
    "description": "Live webcam from Polnicka, Czechia",
    "source": "windy",
    "windyId": "1342347666",
    "category": "Live",
    "coordinates": {
      "lat": 49.63177,
      "lng": 15.90751
    },
    "enabled": true,
    "lastUpdated": "2026-01-12T16:36:38.065Z"
  },
  {
    "id": "windy-1207755799",
    "name": "Meudon: Observatoire de",
    "location": "Meudon, France",
    "description": "Live webcam from Meudon, France",
    "source": "windy",
    "windyId": "1207755799",
    "category": "Live",
    "coordinates": {
      "lat": 48.80443,
      "lng": 2.22743
    },
    "enabled": true,
    "lastUpdated": "2026-01-12T16:36:38.065Z"
  },
  {
    "id": "windy-1011516727",
    "name": "Beckenried: Bergstation Chälen-Sessellift",
    "location": "Beckenried, Switzerland",
    "description": "Live webcam from Beckenried, Switzerland",
    "source": "windy",
    "windyId": "1011516727",
    "category": "Live",
    "coordinates": {
      "lat": 46.94112,
      "lng": 8.47226
    },
    "enabled": true,
    "lastUpdated": "2026-01-12T16:36:38.065Z"
  },
  {
    "id": "windy-1240593092",
    "name": "Krsko: Lokve",
    "location": "Krsko, Slovenia",
    "description": "Live webcam from Krsko, Slovenia",
    "source": "windy",
    "windyId": "1240593092",
    "category": "Live",
    "coordinates": {
      "lat": 46.0101,
      "lng": 13.79119
    },
    "enabled": true,
    "lastUpdated": "2026-01-12T16:36:38.065Z"
  },
  {
    "id": "windy-1233593344",
    "name": "Palafrugell: Tamariu - Costa Brava. Finques Frigola",
    "location": "Palafrugell, Spain",
    "description": "Live webcam from Palafrugell, Spain",
    "source": "windy",
    "windyId": "1233593344",
    "category": "Live",
    "coordinates": {
      "lat": 41.91729,
      "lng": 3.20719
    },
    "enabled": true,
    "lastUpdated": "2026-01-12T16:36:38.065Z"
  },
  {
    "id": "windy-1232544602",
    "name": "Geneva: Gebäude des RTS",
    "location": "Geneva, Switzerland",
    "description": "Live webcam from Geneva, Switzerland",
    "source": "windy",
    "windyId": "1232544602",
    "category": "Live",
    "coordinates": {
      "lat": 46.19629,
      "lng": 6.13611
    },
    "enabled": true,
    "lastUpdated": "2026-01-12T16:36:38.065Z"
  },
  {
    "id": "windy-1384091406",
    "name": "Tromso › West: Tromsø - panorama from the university",
    "location": "Tromso, Norway",
    "description": "Live webcam from Tromso, Norway",
    "source": "windy",
    "windyId": "1384091406",
    "category": "Live",
    "coordinates": {
      "lat": 69.67973,
      "lng": 18.97177
    },
    "enabled": true,
    "lastUpdated": "2026-01-12T16:36:38.065Z"
  },
  {
    "id": "windy-1240237991",
    "name": "Niagara Falls: Hotel Cam at Sheraton",
    "location": "Niagara Falls, United States",
    "description": "Live webcam from Niagara Falls, United States",
    "source": "windy",
    "windyId": "1240237991",
    "category": "Live",
    "coordinates": {
      "lat": 43.09093,
      "lng": -79.07292
    },
    "enabled": true,
    "lastUpdated": "2026-01-12T16:36:38.065Z"
  },
  {
    "id": "windy-1271674330",
    "name": "Olten: Alte Brücke",
    "location": "Olten, Switzerland",
    "description": "Live webcam from Olten, Switzerland",
    "source": "windy",
    "windyId": "1271674330",
    "category": "Live",
    "coordinates": {
      "lat": 47.3498,
      "lng": 7.90651
    },
    "enabled": true,
    "lastUpdated": "2026-01-12T16:36:38.065Z"
  },
  {
    "id": "windy-1215675548",
    "name": "Kutna Hora",
    "location": "Kutna Hora, Czechia",
    "description": "Live webcam from Kutna Hora, Czechia",
    "source": "windy",
    "windyId": "1215675548",
    "category": "Live",
    "coordinates": {
      "lat": 49.95905,
      "lng": 15.2822
    },
    "enabled": true,
    "lastUpdated": "2026-01-12T16:36:38.065Z"
  },
  {
    "id": "windy-1208783935",
    "name": "Plymouth: United Kingdom, England: Lighthouse",
    "location": "Plymouth, United Kingdom",
    "description": "Live webcam from Plymouth, United Kingdom",
    "source": "windy",
    "windyId": "1208783935",
    "category": "Live",
    "coordinates": {
      "lat": 50.36465,
      "lng": -4.14313
    },
    "enabled": true,
    "lastUpdated": "2026-01-12T16:36:38.065Z"
  },
  {
    "id": "windy-1113821046",
    "name": "Nesslau: Stein: Toggenburg Alpakas",
    "location": "Nesslau, Switzerland",
    "description": "Live webcam from Nesslau, Switzerland",
    "source": "windy",
    "windyId": "1113821046",
    "category": "Live",
    "coordinates": {
      "lat": 47.19671,
      "lng": 9.22371
    },
    "enabled": true,
    "lastUpdated": "2026-01-12T16:36:38.065Z"
  },
  {
    "id": "windy-1241945157",
    "name": "Inari: Tie 4 - Saariselkä, Kaunispää - Utsjoelle",
    "location": "Inari, Finland",
    "description": "Live webcam from Inari, Finland",
    "source": "windy",
    "windyId": "1241945157",
    "category": "Live",
    "coordinates": {
      "lat": 68.45088,
      "lng": 27.42372
    },
    "enabled": true,
    "lastUpdated": "2026-01-12T16:36:38.065Z"
  },
  {
    "id": "windy-1248885715",
    "name": "Iseo: Lake Iseo",
    "location": "Iseo, Italy",
    "description": "Live webcam from Iseo, Italy",
    "source": "windy",
    "windyId": "1248885715",
    "category": "Live",
    "coordinates": {
      "lat": 45.66133,
      "lng": 10.04872
    },
    "enabled": true,
    "lastUpdated": "2026-01-12T16:36:38.065Z"
  },
  {
    "id": "windy-1452601876",
    "name": "Capolona: Castelluccio - Monte Vettore",
    "location": "Capolona, Italy",
    "description": "Live webcam from Capolona, Italy",
    "source": "windy",
    "windyId": "1452601876",
    "category": "Live",
    "coordinates": {
      "lat": 42.8284,
      "lng": 13.2046
    },
    "enabled": true,
    "lastUpdated": "2026-01-12T16:36:38.065Z"
  },
  {
    "id": "windy-1286202045",
    "name": "Genoa: Porto di Genova Terminal Traghetti",
    "location": "Genoa, Italy",
    "description": "Live webcam from Genoa, Italy",
    "source": "windy",
    "windyId": "1286202045",
    "category": "Live",
    "coordinates": {
      "lat": 44.41134,
      "lng": 8.9118
    },
    "enabled": true,
    "lastUpdated": "2026-01-12T16:36:38.065Z"
  },
  {
    "id": "windy-1197918606",
    "name": "Vancouver: Jericho Beach - West Point Grey - West Vancouver",
    "location": "Vancouver, Canada",
    "description": "Live webcam from Vancouver, Canada",
    "source": "windy",
    "windyId": "1197918606",
    "category": "Live",
    "coordinates": {
      "lat": 49.27433,
      "lng": -123.21156
    },
    "enabled": true,
    "lastUpdated": "2026-01-12T16:36:38.065Z"
  },
  {
    "id": "windy-1402917280",
    "name": "Santa Cruz das Flores › North-east: Flores Airport",
    "location": "Santa Cruz das Flores, Portugal",
    "description": "Live webcam from Santa Cruz das Flores, Portugal",
    "source": "windy",
    "windyId": "1402917280",
    "category": "Live",
    "coordinates": {
      "lat": 39.44901,
      "lng": -31.13131
    },
    "enabled": true,
    "lastUpdated": "2026-01-12T16:36:38.065Z"
  },
  {
    "id": "windy-1698744503",
    "name": "Sankt Moritz › South-west: › South-West",
    "location": "Sankt Moritz, Switzerland",
    "description": "Live webcam from Sankt Moritz, Switzerland",
    "source": "windy",
    "windyId": "1698744503",
    "category": "Live",
    "coordinates": {
      "lat": 46.48455,
      "lng": 9.82
    },
    "enabled": true,
    "lastUpdated": "2026-01-12T16:36:38.065Z"
  },
  {
    "id": "windy-1697037350",
    "name": "Grindelwald: Belvedere Swiss Quality Hotel Grindelwald - Eiger - Wetterhorn - Kleine Scheidegg - Männlichen",
    "location": "Grindelwald, Switzerland",
    "description": "Live webcam from Grindelwald, Switzerland",
    "source": "windy",
    "windyId": "1697037350",
    "category": "Live",
    "coordinates": {
      "lat": 46.62504,
      "lng": 8.02948
    },
    "enabled": true,
    "lastUpdated": "2026-01-12T16:36:38.065Z"
  },
  {
    "id": "windy-1070821774",
    "name": "Oberiberg: Laburgstrasse - Buoffenalp - Ibergeregg, Passhöhe",
    "location": "Oberiberg, Switzerland",
    "description": "Live webcam from Oberiberg, Switzerland",
    "source": "windy",
    "windyId": "1070821774",
    "category": "Live",
    "coordinates": {
      "lat": 47.04121,
      "lng": 8.78681
    },
    "enabled": true,
    "lastUpdated": "2026-01-12T16:36:38.065Z"
  },
  {
    "id": "windy-1302959392",
    "name": "Appenzell: Dorf",
    "location": "Appenzell, Switzerland",
    "description": "Live webcam from Appenzell, Switzerland",
    "source": "windy",
    "windyId": "1302959392",
    "category": "Live",
    "coordinates": {
      "lat": 47.33072,
      "lng": 9.40859
    },
    "enabled": true,
    "lastUpdated": "2026-01-12T16:36:38.065Z"
  },
  {
    "id": "windy-1697040911",
    "name": "Gryon: Les Chaux",
    "location": "Gryon, Switzerland",
    "description": "Live webcam from Gryon, Switzerland",
    "source": "windy",
    "windyId": "1697040911",
    "category": "Live",
    "coordinates": {
      "lat": 46.29565,
      "lng": 7.10311
    },
    "enabled": true,
    "lastUpdated": "2026-01-12T16:36:38.065Z"
  },
  {
    "id": "windy-1388155154",
    "name": "Le Chenit: Col du Marchairuz 1449m",
    "location": "Le Chenit, Switzerland",
    "description": "Live webcam from Le Chenit, Switzerland",
    "source": "windy",
    "windyId": "1388155154",
    "category": "Live",
    "coordinates": {
      "lat": 46.55257,
      "lng": 6.25004
    },
    "enabled": true,
    "lastUpdated": "2026-01-12T16:36:38.065Z"
  },
  {
    "id": "windy-1299584174",
    "name": "Menconico: Monte Penice Vetta",
    "location": "Menconico, Italy",
    "description": "Live webcam from Menconico, Italy",
    "source": "windy",
    "windyId": "1299584174",
    "category": "Live",
    "coordinates": {
      "lat": 44.78503,
      "lng": 9.31659
    },
    "enabled": true,
    "lastUpdated": "2026-01-12T16:36:38.065Z"
  },
  {
    "id": "windy-1309962155",
    "name": "Nuuk: Pupik",
    "location": "Nuuk, Greenland",
    "description": "Live webcam from Nuuk, Greenland",
    "source": "windy",
    "windyId": "1309962155",
    "category": "Live",
    "coordinates": {
      "lat": 64.17266,
      "lng": -51.67224
    },
    "enabled": true,
    "lastUpdated": "2026-01-12T16:36:38.065Z"
  },
  {
    "id": "windy-1299393087",
    "name": "Tone County: gunma\",\"minakami",
    "location": "unknown, Japan",
    "description": "Live webcam from unknown, Japan",
    "source": "windy",
    "windyId": "1299393087",
    "category": "Live",
    "coordinates": {
      "lat": 36.8391,
      "lng": 139.07009
    },
    "enabled": true,
    "lastUpdated": "2026-01-12T16:36:38.065Z"
  },
  {
    "id": "windy-1385535601",
    "name": "Jezerce pri Dobjem: Kredarica",
    "location": "Jezerce pri Dobjem, Slovenia",
    "description": "Live webcam from Jezerce pri Dobjem, Slovenia",
    "source": "windy",
    "windyId": "1385535601",
    "category": "Live",
    "coordinates": {
      "lat": 46.3782,
      "lng": 13.8489
    },
    "enabled": true,
    "lastUpdated": "2026-01-12T16:36:38.065Z"
  },
  {
    "id": "windy-1697065902",
    "name": "Ollon: Villars-sur-Ollon",
    "location": "Ollon, Switzerland",
    "description": "Live webcam from Ollon, Switzerland",
    "source": "windy",
    "windyId": "1697065902",
    "category": "Live",
    "coordinates": {
      "lat": 46.32287,
      "lng": 7.07499
    },
    "enabled": true,
    "lastUpdated": "2026-01-12T16:36:38.065Z"
  },
  {
    "id": "windy-1461685656",
    "name": "Eggiwil › South-east: Hohgant",
    "location": "Eggiwil, Switzerland",
    "description": "Live webcam from Eggiwil, Switzerland",
    "source": "windy",
    "windyId": "1461685656",
    "category": "Live",
    "coordinates": {
      "lat": 46.82617,
      "lng": 7.79699
    },
    "enabled": true,
    "lastUpdated": "2026-01-12T16:36:38.065Z"
  },
  {
    "id": "windy-1437378560",
    "name": "České Budějovice: Ceske Budejovice 1 › South-west: Náměstí Přemysla Otakara II.",
    "location": "České Budějovice, Czechia",
    "description": "Live webcam from České Budějovice, Czechia",
    "source": "windy",
    "windyId": "1437378560",
    "category": "Live",
    "coordinates": {
      "lat": 48.97447,
      "lng": 14.47434
    },
    "enabled": true,
    "lastUpdated": "2026-01-12T16:36:38.065Z"
  },
  {
    "id": "windy-1537250856",
    "name": "Lisbon › North: Ponte 25 de Abril - PSP - Posto Policial da Ponte 25 de Abril - Almada",
    "location": "unknown, Portugal",
    "description": "Live webcam from unknown, Portugal",
    "source": "windy",
    "windyId": "1537250856",
    "category": "Live",
    "coordinates": {
      "lat": 38.70896,
      "lng": -9.17788
    },
    "enabled": true,
    "lastUpdated": "2026-01-12T16:36:38.065Z"
  },
  {
    "id": "windy-1349915423",
    "name": "Santa Ursula: Canary Islands - Tenerife - La Quinta",
    "location": "Santa Ursula, Spain",
    "description": "Live webcam from Santa Ursula, Spain",
    "source": "windy",
    "windyId": "1349915423",
    "category": "Live",
    "coordinates": {
      "lat": 28.42341,
      "lng": -16.4922
    },
    "enabled": true,
    "lastUpdated": "2026-01-12T16:36:38.066Z"
  },
  {
    "id": "windy-1199812053",
    "name": "Urtijei - St. Ulrich in Groden - Ortisei: Val Gardena Dolomiti - St.Ulrich Gröden Dolomiten - Dolomites",
    "location": "Urtijei - St. Ulrich in Groden - Ortisei, Italy",
    "description": "Live webcam from Urtijei - St. Ulrich in Groden - Ortisei, Italy",
    "source": "windy",
    "windyId": "1199812053",
    "category": "Live",
    "coordinates": {
      "lat": 46.57385,
      "lng": 11.67379
    },
    "enabled": true,
    "lastUpdated": "2026-01-12T16:36:38.066Z"
  },
  {
    "id": "windy-1229964992",
    "name": "Tallinn › North-east: City Square webcam in Estonia",
    "location": "Tallinn, Estonia",
    "description": "Live webcam from Tallinn, Estonia",
    "source": "windy",
    "windyId": "1229964992",
    "category": "Live",
    "coordinates": {
      "lat": 59.43271,
      "lng": 24.74432
    },
    "enabled": true,
    "lastUpdated": "2026-01-12T16:36:38.066Z"
  },
  {
    "id": "windy-1250336261",
    "name": "Innlandet: Galdhøpiggen skisenter - Sommerskisenter",
    "location": "unknown, Norway",
    "description": "Live webcam from unknown, Norway",
    "source": "windy",
    "windyId": "1250336261",
    "category": "Live",
    "coordinates": {
      "lat": 61.66479,
      "lng": 8.36197
    },
    "enabled": true,
    "lastUpdated": "2026-01-12T16:36:38.066Z"
  },
  {
    "id": "windy-1216891584",
    "name": "Pajala › East: Soltorget (Live)",
    "location": "Pajala, Sweden",
    "description": "Live webcam from Pajala, Sweden",
    "source": "windy",
    "windyId": "1216891584",
    "category": "Live",
    "coordinates": {
      "lat": 67.21257,
      "lng": 23.36728
    },
    "enabled": true,
    "lastUpdated": "2026-01-12T16:36:38.066Z"
  },
  {
    "id": "windy-1351356776",
    "name": "Seville › North-east: Giralda",
    "location": "Seville, Spain",
    "description": "Live webcam from Seville, Spain",
    "source": "windy",
    "windyId": "1351356776",
    "category": "Live",
    "coordinates": {
      "lat": 37.38257,
      "lng": -5.98644
    },
    "enabled": true,
    "lastUpdated": "2026-01-12T16:36:38.066Z"
  },
  {
    "id": "windy-1484444428",
    "name": "Shirakawa › West: Shirakawa-go",
    "location": "unknown, Japan",
    "description": "Live webcam from unknown, Japan",
    "source": "windy",
    "windyId": "1484444428",
    "category": "Live",
    "coordinates": {
      "lat": 36.25656,
      "lng": 136.90272
    },
    "enabled": true,
    "lastUpdated": "2026-01-12T16:36:38.066Z"
  },
  {
    "id": "windy-1202665810",
    "name": "Metz: Place d'Armes 2",
    "location": "Metz, France",
    "description": "Live webcam from Metz, France",
    "source": "windy",
    "windyId": "1202665810",
    "category": "Live",
    "coordinates": {
      "lat": 49.11968,
      "lng": 6.17631
    },
    "enabled": true,
    "lastUpdated": "2026-01-12T16:36:38.066Z"
  },
  {
    "id": "windy-1309692963",
    "name": "Porjus › North-west: Northern Lights webcam",
    "location": "Porjus, Sweden",
    "description": "Live webcam from Porjus, Sweden",
    "source": "windy",
    "windyId": "1309692963",
    "category": "Live",
    "coordinates": {
      "lat": 66.96565,
      "lng": 19.82938
    },
    "enabled": true,
    "lastUpdated": "2026-01-12T16:36:38.066Z"
  },
  {
    "id": "windy-1292514934",
    "name": "Lauterbrunnen › South: Lauterbunnen",
    "location": "Lauterbrunnen, Switzerland",
    "description": "Live webcam from Lauterbrunnen, Switzerland",
    "source": "windy",
    "windyId": "1292514934",
    "category": "Live",
    "coordinates": {
      "lat": 46.59388,
      "lng": 7.91346
    },
    "enabled": true,
    "lastUpdated": "2026-01-12T16:36:38.066Z"
  },
  {
    "id": "windy-1195552781",
    "name": "Frankfurt: MesseTurm - Main Tower",
    "location": "Frankfurt, Germany",
    "description": "Live webcam from Frankfurt, Germany",
    "source": "windy",
    "windyId": "1195552781",
    "category": "Live",
    "coordinates": {
      "lat": 50.1121,
      "lng": 8.6447
    },
    "enabled": true,
    "lastUpdated": "2026-01-12T16:36:38.066Z"
  },
  {
    "id": "windy-1292514961",
    "name": "Wildhaus-Alt St. Johann: Wildhaus im Toggenburg",
    "location": "Wildhaus-Alt St. Johann, Switzerland",
    "description": "Live webcam from Wildhaus-Alt St. Johann, Switzerland",
    "source": "windy",
    "windyId": "1292514961",
    "category": "Live",
    "coordinates": {
      "lat": 47.20128,
      "lng": 9.34037
    },
    "enabled": true,
    "lastUpdated": "2026-01-12T16:36:38.066Z"
  },
  {
    "id": "windy-1105964003",
    "name": "Rothenthurm: Skilift Neusell, Bergstation",
    "location": "Rothenthurm, Switzerland",
    "description": "Live webcam from Rothenthurm, Switzerland",
    "source": "windy",
    "windyId": "1105964003",
    "category": "Live",
    "coordinates": {
      "lat": 47.08631,
      "lng": 8.67019
    },
    "enabled": true,
    "lastUpdated": "2026-01-12T16:36:38.066Z"
  },
  {
    "id": "windy-1232544627",
    "name": "Nuremberg: Theresienstraße",
    "location": "Nuremberg, Germany",
    "description": "Live webcam from Nuremberg, Germany",
    "source": "windy",
    "windyId": "1232544627",
    "category": "Live",
    "coordinates": {
      "lat": 49.45602,
      "lng": 11.07899
    },
    "enabled": true,
    "lastUpdated": "2026-01-12T16:36:38.066Z"
  },
  {
    "id": "windy-1217411157",
    "name": "Ascona › South: Porto Patriziale Ascona - Gambarogno - Lake Maggiore",
    "location": "Ascona, Switzerland",
    "description": "Live webcam from Ascona, Switzerland",
    "source": "windy",
    "windyId": "1217411157",
    "category": "Live",
    "coordinates": {
      "lat": 46.14789,
      "lng": 8.79203
    },
    "enabled": true,
    "lastUpdated": "2026-01-12T16:36:38.066Z"
  },
  {
    "id": "windy-1597217056",
    "name": "Renai Township › West: Wuling Parking",
    "location": "Renai Township, Taiwan",
    "description": "Live webcam from Renai Township, Taiwan",
    "source": "windy",
    "windyId": "1597217056",
    "category": "Live",
    "coordinates": {
      "lat": 24.13711,
      "lng": 121.27586
    },
    "enabled": true,
    "lastUpdated": "2026-01-12T16:36:38.066Z"
  },
  {
    "id": "windy-1181025291",
    "name": "Regina",
    "location": "Regina, Canada",
    "description": "Live webcam from Regina, Canada",
    "source": "windy",
    "windyId": "1181025291",
    "category": "Live",
    "coordinates": {
      "lat": 50.50169,
      "lng": -104.66059
    },
    "enabled": true,
    "lastUpdated": "2026-01-12T16:36:38.066Z"
  },
  {
    "id": "windy-1120476644",
    "name": "Lenk: Betelberg, Talstation Wallegg",
    "location": "Lenk, Switzerland",
    "description": "Live webcam from Lenk, Switzerland",
    "source": "windy",
    "windyId": "1120476644",
    "category": "Live",
    "coordinates": {
      "lat": 46.45814,
      "lng": 7.43041
    },
    "enabled": true,
    "lastUpdated": "2026-01-12T16:36:38.066Z"
  },
  {
    "id": "windy-1154342436",
    "name": "Lausanne › South-east: Centre",
    "location": "Lausanne, Switzerland",
    "description": "Live webcam from Lausanne, Switzerland",
    "source": "windy",
    "windyId": "1154342436",
    "category": "Live",
    "coordinates": {
      "lat": 46.52612,
      "lng": 6.63147
    },
    "enabled": true,
    "lastUpdated": "2026-01-12T16:36:38.066Z"
  },
  {
    "id": "windy-1224319690",
    "name": "Queen Maud Land: Icy Views in Ny-Alsund, Neumayer",
    "location": "unknown, unknown",
    "description": "Live webcam from unknown, unknown",
    "source": "windy",
    "windyId": "1224319690",
    "category": "Live",
    "coordinates": {
      "lat": -70.67406,
      "lng": -8.21159
    },
    "enabled": true,
    "lastUpdated": "2026-01-12T16:36:38.066Z"
  },
  {
    "id": "windy-1081757307",
    "name": "Eriz › West: Unterlangenegg - Fahrni - Uetendorf - Schwarzenegg - Stockhorn - Riggisberg - Gurnigel Pass - Jura - Buchen",
    "location": "Eriz, Switzerland",
    "description": "Live webcam from Eriz, Switzerland",
    "source": "windy",
    "windyId": "1081757307",
    "category": "Live",
    "coordinates": {
      "lat": 46.79078,
      "lng": 7.74351
    },
    "enabled": true,
    "lastUpdated": "2026-01-12T16:36:38.066Z"
  },
  {
    "id": "windy-1547038112",
    "name": "Jackson: Spotted Horse Ranch on Hoback River",
    "location": "Jackson, United States",
    "description": "Live webcam from Jackson, United States",
    "source": "windy",
    "windyId": "1547038112",
    "category": "Live",
    "coordinates": {
      "lat": 43.30086,
      "lng": -110.67134
    },
    "enabled": true,
    "lastUpdated": "2026-01-12T16:36:38.066Z"
  },
  {
    "id": "windy-1210831370",
    "name": "Enontekio: Tie 21 Enontekiö, Kilpisjärvi - Norjaan",
    "location": "Enontekio, Finland",
    "description": "Live webcam from Enontekio, Finland",
    "source": "windy",
    "windyId": "1210831370",
    "category": "Live",
    "coordinates": {
      "lat": 69.01668,
      "lng": 20.87425
    },
    "enabled": true,
    "lastUpdated": "2026-01-12T16:36:38.066Z"
  },
  {
    "id": "windy-1545635591",
    "name": "Reykjavik: Harbour - Miðbakki",
    "location": "Reykjavik, Iceland",
    "description": "Live webcam from Reykjavik, Iceland",
    "source": "windy",
    "windyId": "1545635591",
    "category": "Live",
    "coordinates": {
      "lat": 64.14941,
      "lng": -21.93975
    },
    "enabled": true,
    "lastUpdated": "2026-01-12T16:36:38.066Z"
  },
  {
    "id": "windy-1216894327",
    "name": "Tarnaby: Storuman, Sweden",
    "location": "Tarnaby, Sweden",
    "description": "Live webcam from Tarnaby, Sweden",
    "source": "windy",
    "windyId": "1216894327",
    "category": "Live",
    "coordinates": {
      "lat": 65.70988,
      "lng": 15.26404
    },
    "enabled": true,
    "lastUpdated": "2026-01-12T16:36:38.066Z"
  },
  {
    "id": "windy-1270759331",
    "name": "Kunje: Busat › North-west: Uvala maslina - Utjeha - Adriatic Sea",
    "location": "Kunje, Montenegro",
    "description": "Live webcam from Kunje, Montenegro",
    "source": "windy",
    "windyId": "1270759331",
    "category": "Live",
    "coordinates": {
      "lat": 42.00446,
      "lng": 19.15161
    },
    "enabled": true,
    "lastUpdated": "2026-01-12T16:36:38.066Z"
  },
  {
    "id": "windy-1010435704",
    "name": "Solothurn",
    "location": "Solothurn, Switzerland",
    "description": "Live webcam from Solothurn, Switzerland",
    "source": "windy",
    "windyId": "1010435704",
    "category": "Live",
    "coordinates": {
      "lat": 47.20837,
      "lng": 7.53662
    },
    "enabled": true,
    "lastUpdated": "2026-01-12T16:36:38.066Z"
  },
  {
    "id": "windy-1292513213",
    "name": "Valbella: Lenzerheide Alp Stätz",
    "location": "Valbella, Switzerland",
    "description": "Live webcam from Valbella, Switzerland",
    "source": "windy",
    "windyId": "1292513213",
    "category": "Live",
    "coordinates": {
      "lat": 46.7593,
      "lng": 9.53504
    },
    "enabled": true,
    "lastUpdated": "2026-01-12T16:36:38.066Z"
  },
  {
    "id": "windy-1324392866",
    "name": "Vrsar: Marina",
    "location": "Vrsar, Croatia",
    "description": "Live webcam from Vrsar, Croatia",
    "source": "windy",
    "windyId": "1324392866",
    "category": "Live",
    "coordinates": {
      "lat": 45.15002,
      "lng": 13.60264
    },
    "enabled": true,
    "lastUpdated": "2026-01-12T16:36:38.066Z"
  },
  {
    "id": "windy-1448811166",
    "name": "Barcelona: Sagrada Família - La Sagrada Familia",
    "location": "Barcelona, Spain",
    "description": "Live webcam from Barcelona, Spain",
    "source": "windy",
    "windyId": "1448811166",
    "category": "Live",
    "coordinates": {
      "lat": 41.40369,
      "lng": 2.17433
    },
    "enabled": true,
    "lastUpdated": "2026-01-12T16:36:38.066Z"
  },
  {
    "id": "windy-1238681821",
    "name": "Pardubice: Staré Město",
    "location": "Pardubice, Czechia",
    "description": "Live webcam from Pardubice, Czechia",
    "source": "windy",
    "windyId": "1238681821",
    "category": "Live",
    "coordinates": {
      "lat": 50.03583,
      "lng": 15.77944
    },
    "enabled": true,
    "lastUpdated": "2026-01-12T16:36:38.066Z"
  },
  {
    "id": "windy-1290613023",
    "name": "Amden › South: Restaurant Monte Mio - Arvenbüel - Skigebiet Arvenbüel Amden - Leistchamm - Mürtschenstock",
    "location": "Amden, Switzerland",
    "description": "Live webcam from Amden, Switzerland",
    "source": "windy",
    "windyId": "1290613023",
    "category": "Live",
    "coordinates": {
      "lat": 47.15136,
      "lng": 9.17802
    },
    "enabled": true,
    "lastUpdated": "2026-01-12T16:36:38.066Z"
  },
  {
    "id": "windy-1017402470",
    "name": "Quinto: Ambri Airport",
    "location": "Quinto, Switzerland",
    "description": "Live webcam from Quinto, Switzerland",
    "source": "windy",
    "windyId": "1017402470",
    "category": "Live",
    "coordinates": {
      "lat": 46.50265,
      "lng": 8.73808
    },
    "enabled": true,
    "lastUpdated": "2026-01-12T16:36:38.066Z"
  },
  {
    "id": "windy-1496397168",
    "name": "Twizel › North: Lakestone Lodge - Lake Pukaki - Mount Cook - Aoraki/Mount Cook National Park - South Island - New Zealand",
    "location": "Twizel, New Zealand",
    "description": "Live webcam from Twizel, New Zealand",
    "source": "windy",
    "windyId": "1496397168",
    "category": "Live",
    "coordinates": {
      "lat": -44.17757,
      "lng": 170.16081
    },
    "enabled": true,
    "lastUpdated": "2026-01-12T16:36:38.066Z"
  },
  {
    "id": "windy-1364438257",
    "name": "Anadyr: Анадырь",
    "location": "Anadyr, Russia",
    "description": "Live webcam from Anadyr, Russia",
    "source": "windy",
    "windyId": "1364438257",
    "category": "Live",
    "coordinates": {
      "lat": 64.73153,
      "lng": 177.48721
    },
    "enabled": true,
    "lastUpdated": "2026-01-12T16:36:38.066Z"
  },
  {
    "id": "windy-1344544249",
    "name": "Marathia: Kourouta Greece",
    "location": "Marathia, Greece",
    "description": "Live webcam from Marathia, Greece",
    "source": "windy",
    "windyId": "1344544249",
    "category": "Live",
    "coordinates": {
      "lat": 37.76805,
      "lng": 21.29572
    },
    "enabled": true,
    "lastUpdated": "2026-01-12T16:36:38.066Z"
  },
  {
    "id": "windy-1531225795",
    "name": "Zakopane: Województwo małopolskie, Rzeczpospolita Polska",
    "location": "Zakopane, Poland",
    "description": "Live webcam from Zakopane, Poland",
    "source": "windy",
    "windyId": "1531225795",
    "category": "Live",
    "coordinates": {
      "lat": 49.29899,
      "lng": 19.94885
    },
    "enabled": true,
    "lastUpdated": "2026-01-12T16:36:38.066Z"
  },
  {
    "id": "windy-1189067151",
    "name": "Murren: Hotel Eiger",
    "location": "Murren, Switzerland",
    "description": "Live webcam from Murren, Switzerland",
    "source": "windy",
    "windyId": "1189067151",
    "category": "Live",
    "coordinates": {
      "lat": 46.5588,
      "lng": 7.8929
    },
    "enabled": true,
    "lastUpdated": "2026-01-12T16:36:38.066Z"
  },
  {
    "id": "windy-1200419751",
    "name": "Como",
    "location": "Como, Italy",
    "description": "Live webcam from Como, Italy",
    "source": "windy",
    "windyId": "1200419751",
    "category": "Live",
    "coordinates": {
      "lat": 45.81403,
      "lng": 9.07087
    },
    "enabled": true,
    "lastUpdated": "2026-01-12T16:36:38.066Z"
  },