[
  {
    "id": "windy-1793884475",
    "name": "Pinsk",
    "location": "Pinsk, Belarus",
    "description": "Live webcam from Pinsk, Belarus",
    "source": "windy",
    "windyId": "1793884475",
    "category": "Live",
    "coordinates": {
      "lat": 52.1115,
      "lng": 26.1006
    },
    "enabled": true,
    "lastUpdated": "2026-01-11T06:50:51.087Z"
  },
  {
    "id": "windy-1793886286",
    "name": "Pasuliene › North: Bebrenes web kamera",
    "location": "unknown, Latvia",
    "description": "Live webcam from unknown, Latvia",
    "source": "windy",
    "windyId": "1793886286",
    "category": "Live",
    "coordinates": {
      "lat": 56.06636,
      "lng": 26.13062
    },
    "enabled": true,
    "lastUpdated": "2026-01-11T06:50:50.501Z"
  },
  {
    "id": "windy-1744011569",
    "name": "Кингисеппское городское поселение",
    "location": "Кингисеппское городское поселение, Russia",
    "description": "Live webcam from Кингисеппское городское поселение, Russia",
    "source": "windy",
    "windyId": "1744011569",
    "category": "Live",
    "coordinates": {
      "lat": 59.37503,
      "lng": 28.59653
    },
    "enabled": true,
    "lastUpdated": "2026-01-11T06:50:50.501Z"
  },
  {
    "id": "windy-1793869097",
    "name": "Svetlogorsk › East",
    "location": "Svetlogorsk, Russia",
    "description": "Live webcam from Svetlogorsk, Russia",
    "source": "windy",
    "windyId": "1793869097",
    "category": "Live",
    "coordinates": {
      "lat": 54.94575,
      "lng": 20.1472
    },
    "enabled": true,
    "lastUpdated": "2026-01-11T06:50:50.501Z"
  },
  {
    "id": "windy-1727194405",
    "name": "Taurage",
    "location": "Taurage, Lithuania",
    "description": "Live webcam from Taurage, Lithuania",
    "source": "windy",
    "windyId": "1727194405",
    "category": "Live",
    "coordinates": {
      "lat": 55.25634,
      "lng": 22.3039
    },
    "enabled": true,
    "lastUpdated": "2026-01-11T06:50:50.501Z"
  },
  {
    "id": "windy-1455202501",
    "name": "Montauban › South: Aérodrome Morin - Védrines",
    "location": "Montauban, France",
    "description": "Live webcam from Montauban, France",
    "source": "windy",
    "windyId": "1455202501",
    "category": "Live",
    "coordinates": {
      "lat": 44.02876,
      "lng": 1.37614
    },
    "enabled": true,
    "lastUpdated": "2026-01-11T06:51:40.950Z"
  },
  {
    "id": "windy-1695732973",
    "name": "Piraeus: Viking Cruises - Saturn",
    "location": "Piraeus, Greece",
    "description": "Live webcam from Piraeus, Greece",
    "source": "windy",
    "windyId": "1695732973",
    "category": "Live",
    "coordinates": {
      "lat": 39.90667,
      "lng": 11.71833
    },
    "enabled": true,
    "lastUpdated": "2026-01-11T06:52:34.659Z"
  },
  {
    "id": "windy-1643304266",
    "name": "Scarborough: Whitby Harbour",
    "location": "Scarborough, United Kingdom",
    "description": "Live webcam from Scarborough, United Kingdom",
    "source": "windy",
    "windyId": "1643304266",
    "category": "Live",
    "coordinates": {
      "lat": 54.48741,
      "lng": -0.61551
    },
    "enabled": true,
    "lastUpdated": "2026-01-11T06:52:39.941Z"
  },
  {
    "id": "windy-1341952815",
    "name": "Invernessshire: Live Glencoe Ski Centre slope weather snow camera",
    "location": "unknown, United Kingdom",
    "description": "Live webcam from unknown, United Kingdom",
    "source": "windy",
    "windyId": "1341952815",
    "category": "Live",
    "coordinates": {
      "lat": 56.63218,
      "lng": -4.82824
    },
    "enabled": true,
    "lastUpdated": "2026-01-11T06:52:39.941Z"
  },
  {
    "id": "windy-1685711755",
    "name": "Argyll and Bute › South-east",
    "location": "unknown, United Kingdom",
    "description": "Live webcam from unknown, United Kingdom",
    "source": "windy",
    "windyId": "1685711755",
    "category": "Live",
    "coordinates": {
      "lat": 56.61487,
      "lng": -6.52309
    },
    "enabled": true,
    "lastUpdated": "2026-01-11T06:52:39.941Z"
  },
  {
    "id": "windy-1481151461",
    "name": "Old Scone › East: Scottish Aero Club",
    "location": "Old Scone, United Kingdom",
    "description": "Live webcam from Old Scone, United Kingdom",
    "source": "windy",
    "windyId": "1481151461",
    "category": "Live",
    "coordinates": {
      "lat": 56.43604,
      "lng": -3.37108
    },
    "enabled": true,
    "lastUpdated": "2026-01-11T06:52:39.941Z"
  },
  {
    "id": "windy-1685711959",
    "name": "Argyllshire › East",
    "location": "unknown, United Kingdom",
    "description": "Live webcam from unknown, United Kingdom",
    "source": "windy",
    "windyId": "1685711959",
    "category": "Live",
    "coordinates": {
      "lat": 56.06862,
      "lng": -6.18682
    },
    "enabled": true,
    "lastUpdated": "2026-01-11T06:52:39.941Z"
  },
  {
    "id": "windy-1653631975",
    "name": "Edinburgh › West: Castle Rock Hostel",
    "location": "Edinburgh, United Kingdom",
    "description": "Live webcam from Edinburgh, United Kingdom",
    "source": "windy",
    "windyId": "1653631975",
    "category": "Live",
    "coordinates": {
      "lat": 55.94818,
      "lng": -3.19602
    },
    "enabled": true,
    "lastUpdated": "2026-01-11T06:52:39.941Z"
  },
  {
    "id": "windy-1685712242",
    "name": "Strathclyde Region › South-west",
    "location": "unknown, United Kingdom",
    "description": "Live webcam from unknown, United Kingdom",
    "source": "windy",
    "windyId": "1685712242",
    "category": "Live",
    "coordinates": {
      "lat": 55.8065,
      "lng": -5.48315
    },
    "enabled": true,
    "lastUpdated": "2026-01-11T06:52:39.941Z"
  },
  {
    "id": "windy-1571756771",
    "name": "Allerdale › North: Skiddaw - Blencathra",
    "location": "Allerdale, United Kingdom",
    "description": "Live webcam from Allerdale, United Kingdom",
    "source": "windy",
    "windyId": "1571756771",
    "category": "Live",
    "coordinates": {
      "lat": 54.59921,
      "lng": -3.13648
    },
    "enabled": true,
    "lastUpdated": "2026-01-11T06:52:39.941Z"
  },
  {
    "id": "windy-1581432671",
    "name": "Troon › North-west: Troon Yacht Haven",
    "location": "Troon, United Kingdom",
    "description": "Live webcam from Troon, United Kingdom",
    "source": "windy",
    "windyId": "1581432671",
    "category": "Live",
    "coordinates": {
      "lat": 55.54473,
      "lng": -4.6774
    },
    "enabled": true,
    "lastUpdated": "2026-01-11T06:52:39.941Z"
  },
  {
    "id": "windy-1621999427",
    "name": "Holy Island",
    "location": "Holy Island, United Kingdom",
    "description": "Live webcam from Holy Island, United Kingdom",
    "source": "windy",
    "windyId": "1621999427",
    "category": "Live",
    "coordinates": {
      "lat": 55.6692,
      "lng": -1.78468
    },
    "enabled": true,
    "lastUpdated": "2026-01-11T06:52:39.941Z"
  },
  {
    "id": "windy-1532366601",
    "name": "Greenhaugh › North-west: Tarset",
    "location": "Greenhaugh, United Kingdom",
    "description": "Live webcam from Greenhaugh, United Kingdom",
    "source": "windy",
    "windyId": "1532366601",
    "category": "Live",
    "coordinates": {
      "lat": 55.1946,
      "lng": -2.33496
    },
    "enabled": true,
    "lastUpdated": "2026-01-11T06:52:39.941Z"
  },
  {
    "id": "windy-1676710007",
    "name": "Sherburn House",
    "location": "Sherburn House, United Kingdom",
    "description": "Live webcam from Sherburn House, United Kingdom",
    "source": "windy",
    "windyId": "1676710007",
    "category": "Live",
    "coordinates": {
      "lat": 54.77468,
      "lng": -1.53633
    },
    "enabled": true,
    "lastUpdated": "2026-01-11T06:52:39.941Z"
  },
  {
    "id": "windy-1676708645",
    "name": "Holywood: Sydenham",
    "location": "Holywood, United Kingdom",
    "description": "Live webcam from Holywood, United Kingdom",
    "source": "windy",
    "windyId": "1676708645",
    "category": "Live",
    "coordinates": {
      "lat": 54.62282,
      "lng": -5.84006
    },
    "enabled": true,
    "lastUpdated": "2026-01-11T06:52:39.941Z"
  },
  {
    "id": "windy-1580895242",
    "name": "Lanarkshire: Leadhills",
    "location": "unknown, United Kingdom",
    "description": "Live webcam from unknown, United Kingdom",
    "source": "windy",
    "windyId": "1580895242",
    "category": "Live",
    "coordinates": {
      "lat": 55.41604,
      "lng": -3.76105
    },
    "enabled": true,
    "lastUpdated": "2026-01-11T06:52:39.941Z"
  },
  {
    "id": "windy-1448924937",
    "name": "Burray: The Northfield - Orkney, KW17 2SY: Churchill Barrier No. 2, Skerry Sound, Orkney",
    "location": "Burray, United Kingdom",
    "description": "Live webcam from Burray, United Kingdom",
    "source": "windy",
    "windyId": "1448924937",
    "category": "Live",
    "coordinates": {
      "lat": 58.87095,
      "lng": -2.89211
    },
    "enabled": true,
    "lastUpdated": "2026-01-11T06:52:39.941Z"
  },
  {
    "id": "windy-1654794587",
    "name": "Ullapool › North-west",
    "location": "Ullapool, United Kingdom",
    "description": "Live webcam from Ullapool, United Kingdom",
    "source": "windy",
    "windyId": "1654794587",
    "category": "Live",
    "coordinates": {
      "lat": 57.75265,
      "lng": -5.01073
    },
    "enabled": true,
    "lastUpdated": "2026-01-11T06:52:39.941Z"
  },
  {
    "id": "windy-1612011258",
    "name": "Garve › South",
    "location": "Garve, United Kingdom",
    "description": "Live webcam from Garve, United Kingdom",
    "source": "windy",
    "windyId": "1612011258",
    "category": "Live",
    "coordinates": {
      "lat": 57.68777,
      "lng": -6.31865
    },
    "enabled": true,
    "lastUpdated": "2026-01-11T06:52:39.941Z"
  },
  {
    "id": "windy-1511798834",
    "name": "Portgordon › North-east: Scotland, United Kingdom: Sea View - Buckie, United Kingdom",
    "location": "Portgordon, United Kingdom",
    "description": "Live webcam from Portgordon, United Kingdom",
    "source": "windy",
    "windyId": "1511798834",
    "category": "Live",
    "coordinates": {
      "lat": 57.66359,
      "lng": -3.01984
    },
    "enabled": true,
    "lastUpdated": "2026-01-11T06:52:39.941Z"
  },
  {
    "id": "windy-1594296101",
    "name": "Strathy › North-west",
    "location": "Strathy, United Kingdom",
    "description": "Live webcam from Strathy, United Kingdom",
    "source": "windy",
    "windyId": "1594296101",
    "category": "Live",
    "coordinates": {
      "lat": 58.55567,
      "lng": -3.94997
    },
    "enabled": true,
    "lastUpdated": "2026-01-11T06:52:39.941Z"
  },
  {
    "id": "windy-1715979475",
    "name": "Western Isles: Berneray Harbour",
    "location": "unknown, United Kingdom",
    "description": "Live webcam from unknown, United Kingdom",
    "source": "windy",
    "windyId": "1715979475",
    "category": "Live",
    "coordinates": {
      "lat": 57.71525,
      "lng": -7.17054
    },
    "enabled": true,
    "lastUpdated": "2026-01-11T06:52:39.941Z"
  },
  {
    "id": "windy-1623097692",
    "name": "Inverness › East",
    "location": "Inverness, United Kingdom",
    "description": "Live webcam from Inverness, United Kingdom",
    "source": "windy",
    "windyId": "1623097692",
    "category": "Live",
    "coordinates": {
      "lat": 57.5488,
      "lng": -4.26215
    },
    "enabled": true,
    "lastUpdated": "2026-01-11T06:52:39.941Z"
  },
  {
    "id": "windy-1685712074",
    "name": "Highland › East",
    "location": "unknown, United Kingdom",
    "description": "Live webcam from unknown, United Kingdom",
    "source": "windy",
    "windyId": "1685712074",
    "category": "Live",
    "coordinates": {
      "lat": 57.06435,
      "lng": -5.89583
    },
    "enabled": true,
    "lastUpdated": "2026-01-11T06:52:39.941Z"
  },
  {
    "id": "windy-1456261825",
    "name": "Aboyne › West: Deeside Gliding Club - Scotland",
    "location": "Aboyne, United Kingdom",
    "description": "Live webcam from Aboyne, United Kingdom",
    "source": "windy",
    "windyId": "1456261825",
    "category": "Live",
    "coordinates": {
      "lat": 57.07638,
      "lng": -2.7919
    },
    "enabled": true,
    "lastUpdated": "2026-01-11T06:52:39.941Z"
  },
  {
    "id": "windy-1749643239",
    "name": "Kingussie: Cairngorm Gliding Club Feshiebridge Airfield EGZL",
    "location": "Kingussie, United Kingdom",
    "description": "Live webcam from Kingussie, United Kingdom",
    "source": "windy",
    "windyId": "1749643239",
    "category": "Live",
    "coordinates": {
      "lat": 57.08028,
      "lng": -4.05116
    },
    "enabled": true,
    "lastUpdated": "2026-01-11T06:52:39.941Z"
  },
  {
    "id": "windy-1672574717",
    "name": "Peterhead › North",
    "location": "Peterhead, United Kingdom",
    "description": "Live webcam from Peterhead, United Kingdom",
    "source": "windy",
    "windyId": "1672574717",
    "category": "Live",
    "coordinates": {
      "lat": 57.5,
      "lng": -1.8
    },
    "enabled": true,
    "lastUpdated": "2026-01-11T06:52:39.941Z"
  },
  {
    "id": "windy-1685711663",
    "name": "Dun Beag › South",
    "location": "unknown, United Kingdom",
    "description": "Live webcam from unknown, United Kingdom",
    "source": "windy",
    "windyId": "1685711663",
    "category": "Live",
    "coordinates": {
      "lat": 56.95458,
      "lng": -7.48858
    },
    "enabled": true,
    "lastUpdated": "2026-01-11T06:52:39.941Z"
  },
  {
    "id": "windy-1709558406",
    "name": "Haugesund: Haraldshaugen Camping AS",
    "location": "Haugesund, Norway",
    "description": "Live webcam from Haugesund, Norway",
    "source": "windy",
    "windyId": "1709558406",
    "category": "Live",
    "coordinates": {
      "lat": 59.42782,
      "lng": 5.25855
    },
    "enabled": true,
    "lastUpdated": "2026-01-11T06:52:40.264Z"
  },
  {
    "id": "windy-1313496235",
    "name": "Rjukan: sett mot vest",
    "location": "Rjukan, Norway",
    "description": "Live webcam from Rjukan, Norway",
    "source": "windy",
    "windyId": "1313496235",
    "category": "Live",
    "coordinates": {
      "lat": 59.87977,
      "lng": 8.63208
    },
    "enabled": true,
    "lastUpdated": "2026-01-11T06:52:40.265Z"
  },
  {
    "id": "windy-1383651610",
    "name": "Skala: Rosendal - harbour",
    "location": "unknown, Norway",
    "description": "Live webcam from unknown, Norway",
    "source": "windy",
    "windyId": "1383651610",
    "category": "Live",
    "coordinates": {
      "lat": 59.98973,
      "lng": 6.00668
    },
    "enabled": true,
    "lastUpdated": "2026-01-11T06:52:40.265Z"
  },
  {
    "id": "windy-1405782420",
    "name": "Hvittingfoss › North: Kongsberg",
    "location": "Hvittingfoss, Norway",
    "description": "Live webcam from Hvittingfoss, Norway",
    "source": "windy",
    "windyId": "1405782420",
    "category": "Live",
    "coordinates": {
      "lat": 59.54323,
      "lng": 9.95795
    },
    "enabled": true,
    "lastUpdated": "2026-01-11T06:52:40.265Z"
  },
  {
    "id": "windy-1675291724",
    "name": "Fattnes: Ilstad",
    "location": "Fattnes, Norway",
    "description": "Live webcam from Fattnes, Norway",
    "source": "windy",
    "windyId": "1675291724",
    "category": "Live",
    "coordinates": {
      "lat": 59.56114,
      "lng": 6.26909
    },
    "enabled": true,
    "lastUpdated": "2026-01-11T06:52:40.265Z"
  },
  {
    "id": "windy-1675207396",
    "name": "Veum",
    "location": "Veum, Norway",
    "description": "Live webcam from Veum, Norway",
    "source": "windy",
    "windyId": "1675207396",
    "category": "Live",
    "coordinates": {
      "lat": 59.28423,
      "lng": 8.08935
    },
    "enabled": true,
    "lastUpdated": "2026-01-11T06:52:40.265Z"
  },
  {
    "id": "windy-1541165088",
    "name": "Hovden › East: Remestøylflotti Hyttegrend",
    "location": "Hovden, Norway",
    "description": "Live webcam from Hovden, Norway",
    "source": "windy",
    "windyId": "1541165088",
    "category": "Live",
    "coordinates": {
      "lat": 59.56603,
      "lng": 7.38228
    },
    "enabled": true,
    "lastUpdated": "2026-01-11T06:52:40.265Z"
  },
  {
    "id": "windy-1675211701",
    "name": "Bostrak",
    "location": "Bostrak, Norway",
    "description": "Live webcam from Bostrak, Norway",
    "source": "windy",
    "windyId": "1675211701",
    "category": "Live",
    "coordinates": {
      "lat": 59.10633,
      "lng": 8.88702
    },
    "enabled": true,
    "lastUpdated": "2026-01-11T06:52:40.265Z"
  },
  {
    "id": "windy-1327347700",
    "name": "Tonstad: Bjørnestad Skisenter, Sirdal",
    "location": "Tonstad, Norway",
    "description": "Live webcam from Tonstad, Norway",
    "source": "windy",
    "windyId": "1327347700",
    "category": "Live",
    "coordinates": {
      "lat": 58.66202,
      "lng": 6.59351
    },
    "enabled": true,
    "lastUpdated": "2026-01-11T06:52:40.265Z"
  },
  {
    "id": "windy-1700608285",
    "name": "Skomedal: Storstraumen",
    "location": "Skomedal, Norway",
    "description": "Live webcam from Skomedal, Norway",
    "source": "windy",
    "windyId": "1700608285",
    "category": "Live",
    "coordinates": {
      "lat": 58.84951,
      "lng": 7.7471
    },
    "enabled": true,
    "lastUpdated": "2026-01-11T06:52:40.265Z"
  },
  {
    "id": "windy-1694273212",
    "name": "Fevik › South-east",
    "location": "Fevik, Norway",
    "description": "Live webcam from Fevik, Norway",
    "source": "windy",
    "windyId": "1694273212",
    "category": "Live",
    "coordinates": {
      "lat": 58.38201,
      "lng": 8.66916
    },
    "enabled": true,
    "lastUpdated": "2026-01-11T06:52:40.265Z"
  },
  {
    "id": "windy-1592666771",
    "name": "Ringkøbing-Skjern Municipality: Vedersø Klit",
    "location": "unknown, Denmark",
    "description": "Live webcam from unknown, Denmark",
    "source": "windy",
    "windyId": "1592666771",
    "category": "Live",
    "coordinates": {
      "lat": 56.25618,
      "lng": 8.13057
    },
    "enabled": true,
    "lastUpdated": "2026-01-11T06:52:40.265Z"
  },
  {
    "id": "windy-1675464108",
    "name": "Tjensvoll: Madlaveien",
    "location": "unknown, Norway",
    "description": "Live webcam from unknown, Norway",
    "source": "windy",
    "windyId": "1675464108",
    "category": "Live",
    "coordinates": {
      "lat": 58.95437,
      "lng": 5.69335
    },
    "enabled": true,
    "lastUpdated": "2026-01-11T06:52:40.265Z"
  },
  {
    "id": "windy-1757544023",
    "name": "Herdalen",
    "location": "Herdalen, Norway",
    "description": "Live webcam from Herdalen, Norway",
    "source": "windy",
    "windyId": "1757544023",
    "category": "Live",
    "coordinates": {
      "lat": 58.15648,
      "lng": 7.13578
    },
    "enabled": true,
    "lastUpdated": "2026-01-11T06:52:40.265Z"
  },
  {
    "id": "windy-1598780208",
    "name": "Haderslev › East: Sandersvig Camping & Tropeland",
    "location": "Haderslev, Denmark",
    "description": "Live webcam from Haderslev, Denmark",
    "source": "windy",
    "windyId": "1598780208",
    "category": "Live",
    "coordinates": {
      "lat": 55.33179,
      "lng": 9.64132
    },
    "enabled": true,
    "lastUpdated": "2026-01-11T06:52:40.265Z"
  },
  {
    "id": "windy-1591247105",
    "name": "Varde Municipality: Henne Golfklub",
    "location": "unknown, Denmark",
    "description": "Live webcam from unknown, Denmark",
    "source": "windy",
    "windyId": "1591247105",
    "category": "Live",
    "coordinates": {
      "lat": 55.73614,
      "lng": 8.22736
    },
    "enabled": true,
    "lastUpdated": "2026-01-11T06:52:40.265Z"
  },
  {
    "id": "windy-1730010250",
    "name": "Fano Kommune › East",
    "location": "unknown, Denmark",
    "description": "Live webcam from unknown, Denmark",
    "source": "windy",
    "windyId": "1730010250",
    "category": "Live",
    "coordinates": {
      "lat": 55.19025,
      "lng": 7.73163
    },
    "enabled": true,
    "lastUpdated": "2026-01-11T06:52:40.265Z"
  },
  {
    "id": "windy-1675206415",
    "name": "Snorsvall: Berg kirke",
    "location": "unknown, Norway",
    "description": "Live webcam from unknown, Norway",
    "source": "windy",
    "windyId": "1675206415",
    "category": "Live",
    "coordinates": {
      "lat": 58.99279,
      "lng": 9.92314
    },
    "enabled": true,
    "lastUpdated": "2026-01-11T06:52:40.265Z"
  },
  {
    "id": "windy-1545427557",
    "name": "Osterby: Flensburg - Blick nach Norden",
    "location": "Osterby, Germany",
    "description": "Live webcam from Osterby, Germany",
    "source": "windy",
    "windyId": "1545427557",
    "category": "Live",
    "coordinates": {
      "lat": 54.78129,
      "lng": 9.434
    },
    "enabled": true,
    "lastUpdated": "2026-01-11T06:52:40.265Z"
  },
  {
    "id": "windy-1407680145",
    "name": "Wyk auf Fohr: Wyker-Flugplatzbetriebs GmbH",
    "location": "Wyk auf Fohr, Germany",
    "description": "Live webcam from Wyk auf Fohr, Germany",
    "source": "windy",
    "windyId": "1407680145",
    "category": "Live",
    "coordinates": {
      "lat": 54.68317,
      "lng": 8.53306
    },
    "enabled": true,
    "lastUpdated": "2026-01-11T06:52:40.265Z"
  },
  {
    "id": "windy-1619075844",
    "name": "La Lande-Patry: Flers - Saint-Paul Airport",
    "location": "La Lande-Patry, France",
    "description": "Live webcam from La Lande-Patry, France",
    "source": "windy",
    "windyId": "1619075844",
    "category": "Live",
    "coordinates": {
      "lat": 48.75045,
      "lng": -0.58868
    },
    "enabled": true,
    "lastUpdated": "2026-01-11T06:52:40.559Z"
  },
  {
    "id": "windy-1314427176",
    "name": "Anlaby: Boothferry Park",
    "location": "Anlaby, United Kingdom",
    "description": "Live webcam from Anlaby, United Kingdom",
    "source": "windy",
    "windyId": "1314427176",
    "category": "Live",
    "coordinates": {
      "lat": 53.73995,
      "lng": -0.39066
    },
    "enabled": true,
    "lastUpdated": "2026-01-11T06:52:40.559Z"
  },
  {
    "id": "windy-1793867993",
    "name": "London Borough of Hillingdon",
    "location": "London Borough of Hillingdon, United Kingdom",
    "description": "Live webcam from London Borough of Hillingdon, United Kingdom",
    "source": "windy",
    "windyId": "1793867993",
    "category": "Live",
    "coordinates": {
      "lat": 51.49547,
      "lng": -0.45473
    },
    "enabled": true,
    "lastUpdated": "2026-01-11T06:52:40.559Z"
  },
  {
    "id": "windy-1647081607",
    "name": "South Holland",
    "location": "South Holland, United Kingdom",
    "description": "Live webcam from South Holland, United Kingdom",
    "source": "windy",
    "windyId": "1647081607",
    "category": "Live",
    "coordinates": {
      "lat": 52.70938,
      "lng": -0.1393
    },
    "enabled": true,
    "lastUpdated": "2026-01-11T06:52:40.559Z"
  },
  {
    "id": "windy-1539872709",
    "name": "Emberton: park: Lake",
    "location": "Emberton, United Kingdom",
    "description": "Live webcam from Emberton, United Kingdom",
    "source": "windy",
    "windyId": "1539872709",
    "category": "Live",
    "coordinates": {
      "lat": 52.14389,
      "lng": -0.70793
    },
    "enabled": true,
    "lastUpdated": "2026-01-11T06:52:40.559Z"
  },
  {
    "id": "windy-1762928323",
    "name": "Rotherham",
    "location": "Rotherham, United Kingdom",
    "description": "Live webcam from Rotherham, United Kingdom",
    "source": "windy",
    "windyId": "1762928323",
    "category": "Live",
    "coordinates": {
      "lat": 53.3837,
      "lng": -1.2783
    },
    "enabled": true,
    "lastUpdated": "2026-01-11T06:52:40.559Z"
  },
  {
    "id": "windy-1793869256",
    "name": "East Hampshire",
    "location": "East Hampshire, United Kingdom",
    "description": "Live webcam from East Hampshire, United Kingdom",
    "source": "windy",
    "windyId": "1793869256",
    "category": "Live",
    "coordinates": {
      "lat": 50.9208,
      "lng": -0.9979
    },
    "enabled": true,
    "lastUpdated": "2026-01-11T06:52:40.559Z"
  },
  {
    "id": "windy-1644017960",
    "name": "Brighton › West",
    "location": "Brighton, United Kingdom",
    "description": "Live webcam from Brighton, United Kingdom",
    "source": "windy",
    "windyId": "1644017960",
    "category": "Live",
    "coordinates": {
      "lat": 50.82013,
      "lng": -0.14301
    },
    "enabled": true,
    "lastUpdated": "2026-01-11T06:52:40.559Z"
  },
  {
    "id": "windy-1619076506",
    "name": "Breville-sur-Mer › North-west",
    "location": "Breville-sur-Mer, France",
    "description": "Live webcam from Breville-sur-Mer, France",
    "source": "windy",
    "windyId": "1619076506",
    "category": "Live",
    "coordinates": {
      "lat": 48.88119,
      "lng": -1.56411
    },
    "enabled": true,
    "lastUpdated": "2026-01-11T06:52:40.559Z"
  },
  {
    "id": "windy-1213353550",
    "name": "Braddan: Douglas Harbour, Queen Victoria Pier",
    "location": "Braddan, Isle of Man",
    "description": "Live webcam from Braddan, Isle of Man",
    "source": "windy",
    "windyId": "1213353550",
    "category": "Live",
    "coordinates": {
      "lat": 54.14663,
      "lng": -4.47161
    },
    "enabled": true,
    "lastUpdated": "2026-01-11T06:52:40.559Z"
  },
  {
    "id": "windy-1366141550",
    "name": "Sligo Municipal Borough District: Knockaree ED: Strandhill Beach",
    "location": "Sligo Municipal Borough District, Ireland",
    "description": "Live webcam from Sligo Municipal Borough District, Ireland",
    "source": "windy",
    "windyId": "1366141550",
    "category": "Live",
    "coordinates": {
      "lat": 54.26984,
      "lng": -8.60982
    },
    "enabled": true,
    "lastUpdated": "2026-01-11T06:52:40.559Z"
  },
  {
    "id": "windy-1593344105",
    "name": "Harrogate › North: › North",
    "location": "Harrogate, United Kingdom",
    "description": "Live webcam from Harrogate, United Kingdom",
    "source": "windy",
    "windyId": "1593344105",
    "category": "Live",
    "coordinates": {
      "lat": 53.9732,
      "lng": -1.53408
    },
    "enabled": true,
    "lastUpdated": "2026-01-11T06:52:40.559Z"
  },
  {
    "id": "windy-1683365726",
    "name": "Ballyjamesduff Municipal District",
    "location": "Ballyjamesduff Municipal District, Ireland",
    "description": "Live webcam from Ballyjamesduff Municipal District, Ireland",
    "source": "windy",
    "windyId": "1683365726",
    "category": "Live",
    "coordinates": {
      "lat": 53.86391,
      "lng": -7.20616
    },
    "enabled": true,
    "lastUpdated": "2026-01-11T06:52:40.559Z"
  },
  {
    "id": "windy-1793870137",
    "name": "Rochdale",
    "location": "Rochdale, United Kingdom",
    "description": "Live webcam from Rochdale, United Kingdom",
    "source": "windy",
    "windyId": "1793870137",
    "category": "Live",
    "coordinates": {
      "lat": 53.57859,
      "lng": -2.20242
    },
    "enabled": true,
    "lastUpdated": "2026-01-11T06:52:40.559Z"
  },
  {
    "id": "windy-1531056537",
    "name": "Athlone Municipal District: Lough Ree",
    "location": "unknown, Ireland",
    "description": "Live webcam from unknown, Ireland",
    "source": "windy",
    "windyId": "1531056537",
    "category": "Live",
    "coordinates": {
      "lat": 53.47109,
      "lng": -7.91907
    },
    "enabled": true,
    "lastUpdated": "2026-01-11T06:52:40.559Z"
  },
  {
    "id": "windy-1604926554",
    "name": "Wirral › North",
    "location": "Wirral, United Kingdom",
    "description": "Live webcam from Wirral, United Kingdom",
    "source": "windy",
    "windyId": "1604926554",
    "category": "Live",
    "coordinates": {
      "lat": 53.42392,
      "lng": -3.02751
    },
    "enabled": true,
    "lastUpdated": "2026-01-11T06:52:40.559Z"
  },
  {
    "id": "windy-1450199511",
    "name": "The Municipal District of Bray › North-east: Bray Harbour - King Edward Road",
    "location": "The Municipal District of Bray, Ireland",
    "description": "Live webcam from The Municipal District of Bray, Ireland",
    "source": "windy",
    "windyId": "1450199511",
    "category": "Live",
    "coordinates": {
      "lat": 53.20784,
      "lng": -6.1
    },
    "enabled": true,
    "lastUpdated": "2026-01-11T06:52:40.559Z"
  },
  {
    "id": "windy-1589192077",
    "name": "The Municipal District of Tullow: Tullow Rural ED › East: Tullow",
    "location": "The Municipal District of Tullow, Ireland",
    "description": "Live webcam from The Municipal District of Tullow, Ireland",
    "source": "windy",
    "windyId": "1589192077",
    "category": "Live",
    "coordinates": {
      "lat": 52.79298,
      "lng": -6.71062
    },
    "enabled": true,
    "lastUpdated": "2026-01-11T06:52:40.559Z"
  },
  {
    "id": "windy-1762480807",
    "name": "Newcastle-under-Lyme",
    "location": "Newcastle-under-Lyme, United Kingdom",
    "description": "Live webcam from Newcastle-under-Lyme, United Kingdom",
    "source": "windy",
    "windyId": "1762480807",
    "category": "Live",
    "coordinates": {
      "lat": 52.9939,
      "lng": -2.286
    },
    "enabled": true,
    "lastUpdated": "2026-01-11T06:52:40.559Z"
  },
  {
    "id": "windy-1793869297",
    "name": "Tewkesbury",
    "location": "Tewkesbury, United Kingdom",
    "description": "Live webcam from Tewkesbury, United Kingdom",
    "source": "windy",
    "windyId": "1793869297",
    "category": "Live",
    "coordinates": {
      "lat": 51.857,
      "lng": -2.16755
    },
    "enabled": true,
    "lastUpdated": "2026-01-11T06:52:40.559Z"
  },
  {
    "id": "windy-1648484648",
    "name": "Caernarfon: iland Cam1",
    "location": "Caernarfon, United Kingdom",
    "description": "Live webcam from Caernarfon, United Kingdom",
    "source": "windy",
    "windyId": "1648484648",
    "category": "Live",
    "coordinates": {
      "lat": 53.14309,
      "lng": -4.27562
    },
    "enabled": true,
    "lastUpdated": "2026-01-11T06:52:40.559Z"
  },
  {
    "id": "windy-1793868970",
    "name": "Solihull",
    "location": "Solihull, United Kingdom",
    "description": "Live webcam from Solihull, United Kingdom",
    "source": "windy",
    "windyId": "1793868970",
    "category": "Live",
    "coordinates": {
      "lat": 52.3943,
      "lng": -1.7672
    },
    "enabled": true,
    "lastUpdated": "2026-01-11T06:52:40.559Z"
  },
  {
    "id": "windy-1680936099",
    "name": "Swanage",
    "location": "Swanage, United Kingdom",
    "description": "Live webcam from Swanage, United Kingdom",
    "source": "windy",
    "windyId": "1680936099",
    "category": "Live",
    "coordinates": {
      "lat": 50.60724,
      "lng": -1.94492
    },
    "enabled": true,
    "lastUpdated": "2026-01-11T06:52:40.559Z"
  },
  {
    "id": "windy-1793868382",
    "name": "Sedgemoor",
    "location": "Sedgemoor, United Kingdom",
    "description": "Live webcam from Sedgemoor, United Kingdom",
    "source": "windy",
    "windyId": "1793868382",
    "category": "Live",
    "coordinates": {
      "lat": 51.2627,
      "lng": -2.9222
    },
    "enabled": true,
    "lastUpdated": "2026-01-11T06:52:40.559Z"
  },
  {
    "id": "windy-1346463609",
    "name": "Waterford City Metropolitan District: Tramore",
    "location": "Waterford City Metropolitan District, Ireland",
    "description": "Live webcam from Waterford City Metropolitan District, Ireland",
    "source": "windy",
    "windyId": "1346463609",
    "category": "Live",
    "coordinates": {
      "lat": 52.15823,
      "lng": -7.14947
    },
    "enabled": true,
    "lastUpdated": "2026-01-11T06:52:40.559Z"
  },
  {
    "id": "windy-1506620810",
    "name": "West Devon › North: Dartmoor National Park",
    "location": "West Devon, United Kingdom",
    "description": "Live webcam from West Devon, United Kingdom",
    "source": "windy",
    "windyId": "1506620810",
    "category": "Live",
    "coordinates": {
      "lat": 50.57582,
      "lng": -3.93924
    },
    "enabled": true,
    "lastUpdated": "2026-01-11T06:52:40.560Z"
  },
  {
    "id": "windy-1650442876",
    "name": "Lyme Regis",
    "location": "Lyme Regis, United Kingdom",
    "description": "Live webcam from Lyme Regis, United Kingdom",
    "source": "windy",
    "windyId": "1650442876",
    "category": "Live",
    "coordinates": {
      "lat": 50.72529,
      "lng": -2.93456
    },
    "enabled": true,
    "lastUpdated": "2026-01-11T06:52:40.560Z"
  },
  {
    "id": "windy-1704993078",
    "name": "Kenmare Municipal District › North-east: Misty Bay",
    "location": "Kenmare Municipal District, Ireland",
    "description": "Live webcam from Kenmare Municipal District, Ireland",
    "source": "windy",
    "windyId": "1704993078",
    "category": "Live",
    "coordinates": {
      "lat": 51.85858,
      "lng": -9.59875
    },
    "enabled": true,
    "lastUpdated": "2026-01-11T06:52:40.560Z"
  },
  {
    "id": "windy-1719082333",
    "name": "Listowel Municipal District: Ballybunion Castle",
    "location": "Listowel Municipal District, Ireland",
    "description": "Live webcam from Listowel Municipal District, Ireland",
    "source": "windy",
    "windyId": "1719082333",
    "category": "Live",
    "coordinates": {
      "lat": 52.51113,
      "lng": -9.67561
    },
    "enabled": true,
    "lastUpdated": "2026-01-11T06:52:40.560Z"
  },
  {
    "id": "windy-1670589422",
    "name": "The Municipal District of Borris-in-Ossory — Mountmellick › North-west",
    "location": "The Municipal District of Borris-in-Ossory — Mountmellick, Ireland",
    "description": "Live webcam from The Municipal District of Borris-in-Ossory — Mountmellick, Ireland",
    "source": "windy",
    "windyId": "1670589422",
    "category": "Live",
    "coordinates": {
      "lat": 52.99537,
      "lng": -7.47794
    },
    "enabled": true,
    "lastUpdated": "2026-01-11T06:52:40.560Z"
  },
  {
    "id": "windy-1646866142",
    "name": "North Devon",
    "location": "North Devon, United Kingdom",
    "description": "Live webcam from North Devon, United Kingdom",
    "source": "windy",
    "windyId": "1646866142",
    "category": "Live",
    "coordinates": {
      "lat": 51.20538,
      "lng": -4.03496
    },
    "enabled": true,
    "lastUpdated": "2026-01-11T06:52:40.560Z"
  },
  {
    "id": "windy-1757679956",
    "name": "Cobh Municipal District › South",
    "location": "Cobh Municipal District, Ireland",
    "description": "Live webcam from Cobh Municipal District, Ireland",
    "source": "windy",
    "windyId": "1757679956",
    "category": "Live",
    "coordinates": {
      "lat": 51.84911,
      "lng": -8.29768
    },
    "enabled": true,
    "lastUpdated": "2026-01-11T06:52:40.560Z"
  },
  {
    "id": "windy-1586612871",
    "name": "Conamara Municipal District: Inishmore › South-east: Aran Islands Hotel",
    "location": "Conamara Municipal District, Ireland",
    "description": "Live webcam from Conamara Municipal District, Ireland",
    "source": "windy",
    "windyId": "1586612871",
    "category": "Live",
    "coordinates": {
      "lat": 53.11793,
      "lng": -9.67571
    },
    "enabled": true,
    "lastUpdated": "2026-01-11T06:52:40.560Z"
  },
  {
    "id": "windy-1603616640",
    "name": "Penzance: Newlyn Harbour - Mount's Bay",
    "location": "Penzance, United Kingdom",
    "description": "Live webcam from Penzance, United Kingdom",
    "source": "windy",
    "windyId": "1603616640",
    "category": "Live",
    "coordinates": {
      "lat": 50.10321,
      "lng": -5.55271
    },
    "enabled": true,
    "lastUpdated": "2026-01-11T06:52:40.560Z"
  },
  {
    "id": "windy-1655660129",
    "name": "Welshpool › North-east",
    "location": "Welshpool, United Kingdom",
    "description": "Live webcam from Welshpool, United Kingdom",
    "source": "windy",
    "windyId": "1655660129",
    "category": "Live",
    "coordinates": {
      "lat": 52.63206,
      "lng": -3.1495
    },
    "enabled": true,
    "lastUpdated": "2026-01-11T06:52:40.560Z"
  },
  {
    "id": "windy-1793869135",
    "name": "Saundersfoot",
    "location": "Saundersfoot, United Kingdom",
    "description": "Live webcam from Saundersfoot, United Kingdom",
    "source": "windy",
    "windyId": "1793869135",
    "category": "Live",
    "coordinates": {
      "lat": 51.7293,
      "lng": -4.72169
    },
    "enabled": true,
    "lastUpdated": "2026-01-11T06:52:40.560Z"
  },
  {
    "id": "windy-1761336194",
    "name": "Forest: Aiglle Flight Support",
    "location": "Forest, Guernsey",
    "description": "Live webcam from Forest, Guernsey",
    "source": "windy",
    "windyId": "1761336194",
    "category": "Live",
    "coordinates": {
      "lat": 49.43355,
      "lng": -2.5929
    },
    "enabled": true,
    "lastUpdated": "2026-01-11T06:52:40.560Z"
  },
  {
    "id": "windy-1575671492",
    "name": "Helgoland: Livespotting - Live-Streaming von - mit Düne und Hafen",
    "location": "Helgoland, Germany",
    "description": "Live webcam from Helgoland, Germany",
    "source": "windy",
    "windyId": "1575671492",
    "category": "Live",
    "coordinates": {
      "lat": 54.18214,
      "lng": 7.88749
    },
    "enabled": true,
    "lastUpdated": "2026-01-11T06:52:39.649Z"
  },
  {
    "id": "windy-1469794097",
    "name": "Walldorf › East: Flugplatz Walldorf",
    "location": "Walldorf, Germany",
    "description": "Live webcam from Walldorf, Germany",
    "source": "windy",
    "windyId": "1469794097",
    "category": "Live",
    "coordinates": {
      "lat": 49.30701,
      "lng": 8.6561
    },
    "enabled": true,
    "lastUpdated": "2026-01-11T06:52:39.649Z"
  },
  {
    "id": "windy-1611009006",
    "name": "Busumer Deichhausen: Livespotting - Live am Wattenmeer der Nordsee an der Meldorfer Bucht",
    "location": "Busumer Deichhausen, Germany",
    "description": "Live webcam from Busumer Deichhausen, Germany",
    "source": "windy",
    "windyId": "1611009006",
    "category": "Live",
    "coordinates": {
      "lat": 54.13378,
      "lng": 8.89237
    },
    "enabled": true,
    "lastUpdated": "2026-01-11T06:52:39.649Z"
  },
  {
    "id": "windy-1223409171",
    "name": "Bremen: Schlachte",
    "location": "Bremen, Germany",
    "description": "Live webcam from Bremen, Germany",
    "source": "windy",
    "windyId": "1223409171",
    "category": "Live",
    "coordinates": {
      "lat": 53.0744,
      "lng": 8.8044
    },
    "enabled": true,
    "lastUpdated": "2026-01-11T06:52:39.649Z"
  },
  {
    "id": "windy-1597010894",
    "name": "Sehnde › South",
    "location": "Sehnde, Germany",
    "description": "Live webcam from Sehnde, Germany",
    "source": "windy",
    "windyId": "1597010894",
    "category": "Live",
    "coordinates": {
      "lat": 52.30158,
      "lng": 9.96
    },
    "enabled": true,
    "lastUpdated": "2026-01-11T06:52:39.649Z"
  },
  {
    "id": "windy-1793877658",
    "name": "Hofgeismar: Tierpark Sababurg - Elch-Lodge",
    "location": "Hofgeismar, Germany",
    "description": "Live webcam from Hofgeismar, Germany",
    "source": "windy",
    "windyId": "1793877658",
    "category": "Live",
    "coordinates": {
      "lat": 51.53498,
      "lng": 9.52978
    },
    "enabled": true,
    "lastUpdated": "2026-01-11T06:52:39.649Z"
  },
  {
    "id": "windy-1653845418",
    "name": "Gersfeld › South-west",
    "location": "Gersfeld, Germany",
    "description": "Live webcam from Gersfeld, Germany",
    "source": "windy",
    "windyId": "1653845418",
    "category": "Live",
    "coordinates": {
      "lat": 50.49754,
      "lng": 9.93521
    },
    "enabled": true,
    "lastUpdated": "2026-01-11T06:52:39.649Z"
  },
  {
    "id": "windy-1609714626",
    "name": "Libramont-Chevigny",
    "location": "Libramont-Chevigny, Belgium",
    "description": "Live webcam from Libramont-Chevigny, Belgium",
    "source": "windy",
    "windyId": "1609714626",
    "category": "Live",
    "coordinates": {
      "lat": 49.92716,
      "lng": 5.48545
    },
    "enabled": true,
    "lastUpdated": "2026-01-11T06:52:39.649Z"
  },
  {
    "id": "windy-1521156303",
    "name": "Amiens: Hôtel de Ville",
    "location": "Amiens, France",
    "description": "Live webcam from Amiens, France",
    "source": "windy",
    "windyId": "1521156303",
    "category": "Live",
    "coordinates": {
      "lat": 49.8939,
      "lng": 2.29483
    },
    "enabled": true,
    "lastUpdated": "2026-01-11T06:52:39.649Z"
  },
  {
    "id": "windy-1327148007",
    "name": "Saint-Jouin-Bruneval",
    "location": "Saint-Jouin-Bruneval, France",
    "description": "Live webcam from Saint-Jouin-Bruneval, France",
    "source": "windy",
    "windyId": "1327148007",
    "category": "Live",
    "coordinates": {
      "lat": 49.64887,
      "lng": 0.1545
    },
    "enabled": true,
    "lastUpdated": "2026-01-11T06:52:39.649Z"
  },
  {
    "id": "windy-1363012115",
    "name": "Senningen: A1 Senningerberg Fliigerbreck",
    "location": "Senningen, Luxembourg",
    "description": "Live webcam from Senningen, Luxembourg",
    "source": "windy",
    "windyId": "1363012115",
    "category": "Live",
    "coordinates": {
      "lat": 49.63704,
      "lng": 6.24006
    },
    "enabled": true,
    "lastUpdated": "2026-01-11T06:52:39.649Z"
  },
  {
    "id": "windy-1672074457",
    "name": "Rouen",
    "location": "Rouen, France",
    "description": "Live webcam from Rouen, France",
    "source": "windy",
    "windyId": "1672074457",
    "category": "Live",
    "coordinates": {
      "lat": 49.43514,
      "lng": 1.09405
    },
    "enabled": true,
    "lastUpdated": "2026-01-11T06:52:39.649Z"
  },
  {
    "id": "windy-1593873311",
    "name": "Courmelles",
    "location": "Courmelles, France",
    "description": "Live webcam from Courmelles, France",
    "source": "windy",
    "windyId": "1593873311",
    "category": "Live",
    "coordinates": {
      "lat": 49.34288,
      "lng": 3.27708
    },
    "enabled": true,
    "lastUpdated": "2026-01-11T06:52:39.649Z"
  },
  {
    "id": "windy-1618144876",
    "name": "Emerainville › South-east: Aerodrome de Lognes",
    "location": "Emerainville, France",
    "description": "Live webcam from Emerainville, France",
    "source": "windy",
    "windyId": "1618144876",
    "category": "Live",
    "coordinates": {
      "lat": 48.82022,
      "lng": 2.62496
    },
    "enabled": true,
    "lastUpdated": "2026-01-11T06:52:39.649Z"
  },
  {
    "id": "windy-1592648280",
    "name": "Sommedieue › South: Verdun-Le-Rozelier Airport",
    "location": "Sommedieue, France",
    "description": "Live webcam from Sommedieue, France",
    "source": "windy",
    "windyId": "1592648280",
    "category": "Live",
    "coordinates": {
      "lat": 49.1229,
      "lng": 5.47091
    },
    "enabled": true,
    "lastUpdated": "2026-01-11T06:52:39.649Z"
  },
  {
    "id": "windy-1400264455",
    "name": "Rieschweiler-Muhlbach: Flugplatz Pirmasens Richtung 05",
    "location": "Rieschweiler-Muhlbach, Germany",
    "description": "Live webcam from Rieschweiler-Muhlbach, Germany",
    "source": "windy",
    "windyId": "1400264455",
    "category": "Live",
    "coordinates": {
      "lat": 49.26303,
      "lng": 7.48933
    },
    "enabled": true,
    "lastUpdated": "2026-01-11T06:52:39.649Z"
  },
  {
    "id": "windy-1692870812",
    "name": "Plivot › East",
    "location": "Plivot, France",
    "description": "Live webcam from Plivot, France",
    "source": "windy",
    "windyId": "1692870812",
    "category": "Live",
    "coordinates": {
      "lat": 49.00812,
      "lng": 4.07787
    },
    "enabled": true,
    "lastUpdated": "2026-01-11T06:52:39.649Z"
  },
  {
    "id": "windy-1249042891",
    "name": "Baltrum: Island - Insel",
    "location": "Baltrum, Germany",
    "description": "Live webcam from Baltrum, Germany",
    "source": "windy",
    "windyId": "1249042891",
    "category": "Live",
    "coordinates": {
      "lat": 53.7298,
      "lng": 7.37419
    },
    "enabled": true,
    "lastUpdated": "2026-01-11T06:52:39.649Z"
  },
  {
    "id": "windy-1378070378",
    "name": "Willingen: Schwalefeld - Café Fernblick",
    "location": "Willingen, Germany",
    "description": "Live webcam from Willingen, Germany",
    "source": "windy",
    "windyId": "1378070378",
    "category": "Live",
    "coordinates": {
      "lat": 51.31042,
      "lng": 8.61636
    },
    "enabled": true,
    "lastUpdated": "2026-01-11T06:52:39.649Z"
  },
  {
    "id": "windy-1340211685",
    "name": "Hulseburg: Airport Marl Loemühle",
    "location": "Hulseburg, Germany",
    "description": "Live webcam from Hulseburg, Germany",
    "source": "windy",
    "windyId": "1340211685",
    "category": "Live",
    "coordinates": {
      "lat": 51.67269,
      "lng": 7.13433
    },
    "enabled": true,
    "lastUpdated": "2026-01-11T06:52:39.649Z"
  },
  {
    "id": "windy-1189777630",
    "name": "Varel: Dangaster Campingplatz",
    "location": "Varel, Germany",
    "description": "Live webcam from Varel, Germany",
    "source": "windy",
    "windyId": "1189777630",
    "category": "Live",
    "coordinates": {
      "lat": 53.44891,
      "lng": 8.11778
    },
    "enabled": true,
    "lastUpdated": "2026-01-11T06:52:39.649Z"
  },
  {
    "id": "windy-1507026630",
    "name": "Bunde: Dünne - Wiehen Hills",
    "location": "Bunde, Germany",
    "description": "Live webcam from Bunde, Germany",
    "source": "windy",
    "windyId": "1507026630",
    "category": "Live",
    "coordinates": {
      "lat": 52.20918,
      "lng": 8.59262
    },
    "enabled": true,
    "lastUpdated": "2026-01-11T06:52:39.649Z"
  },
  {
    "id": "windy-1233865595",
    "name": "Holte-Lastrup: Fürwiggetalsperre",
    "location": "Holte-Lastrup, Germany",
    "description": "Live webcam from Holte-Lastrup, Germany",
    "source": "windy",
    "windyId": "1233865595",
    "category": "Live",
    "coordinates": {
      "lat": 51.14998,
      "lng": 7.68739
    },
    "enabled": true,
    "lastUpdated": "2026-01-11T06:52:39.649Z"
  },
  {
    "id": "windy-1295480742",
    "name": "Meppen › South: › South",
    "location": "Meppen, Germany",
    "description": "Live webcam from Meppen, Germany",
    "source": "windy",
    "windyId": "1295480742",
    "category": "Live",
    "coordinates": {
      "lat": 52.69735,
      "lng": 7.29853
    },
    "enabled": true,
    "lastUpdated": "2026-01-11T06:52:39.649Z"
  },
  {
    "id": "windy-1759328266",
    "name": "Samtgemeinde Hage › South-east",
    "location": "unknown, Germany",
    "description": "Live webcam from unknown, Germany",
    "source": "windy",
    "windyId": "1759328266",
    "category": "Live",
    "coordinates": {
      "lat": 54.15317,
      "lng": 6.82427
    },
    "enabled": true,
    "lastUpdated": "2026-01-11T06:52:39.649Z"
  },
  {
    "id": "windy-1688287080",
    "name": "Drechterland",
    "location": "Drechterland, Netherlands",
    "description": "Live webcam from Drechterland, Netherlands",
    "source": "windy",
    "windyId": "1688287080",
    "category": "Live",
    "coordinates": {
      "lat": 52.63437,
      "lng": 5.12222
    },
    "enabled": true,
    "lastUpdated": "2026-01-11T06:52:39.649Z"
  },
  {
    "id": "windy-1512908247",
    "name": "Grevenbroich: Stadtparkinsel",
    "location": "Grevenbroich, Germany",
    "description": "Live webcam from Grevenbroich, Germany",
    "source": "windy",
    "windyId": "1512908247",
    "category": "Live",
    "coordinates": {
      "lat": 51.09145,
      "lng": 6.58686
    },
    "enabled": true,
    "lastUpdated": "2026-01-11T06:52:39.649Z"
  },
  {
    "id": "windy-1624456343",
    "name": "Maldon › East: Blackwater Sailing Club",
    "location": "Maldon, United Kingdom",
    "description": "Live webcam from Maldon, United Kingdom",
    "source": "windy",
    "windyId": "1624456343",
    "category": "Live",
    "coordinates": {
      "lat": 51.73188,
      "lng": 0.70909
    },
    "enabled": true,
    "lastUpdated": "2026-01-11T06:52:39.649Z"
  },
  {
    "id": "windy-1683902304",
    "name": "Krimpenerwaard › South-west",
    "location": "Krimpenerwaard, Netherlands",
    "description": "Live webcam from Krimpenerwaard, Netherlands",
    "source": "windy",
    "windyId": "1683902304",
    "category": "Live",
    "coordinates": {
      "lat": 51.94267,
      "lng": 4.85421
    },
    "enabled": true,
    "lastUpdated": "2026-01-11T06:52:39.649Z"
  },
  {
    "id": "windy-1656767575",
    "name": "Malden › North",
    "location": "Malden, Netherlands",
    "description": "Live webcam from Malden, Netherlands",
    "source": "windy",
    "windyId": "1656767575",
    "category": "Live",
    "coordinates": {
      "lat": 51.77619,
      "lng": 5.86447
    },
    "enabled": true,
    "lastUpdated": "2026-01-11T06:52:39.649Z"
  },
  {
    "id": "windy-1609234547",
    "name": "East Lindsey › North",
    "location": "East Lindsey, United Kingdom",
    "description": "Live webcam from East Lindsey, United Kingdom",
    "source": "windy",
    "windyId": "1609234547",
    "category": "Live",
    "coordinates": {
      "lat": 53.34102,
      "lng": 0.2668
    },
    "enabled": true,
    "lastUpdated": "2026-01-11T06:52:39.649Z"
  },
  {
    "id": "windy-1793871686",
    "name": "East Cambridgeshire",
    "location": "East Cambridgeshire, United Kingdom",
    "description": "Live webcam from East Cambridgeshire, United Kingdom",
    "source": "windy",
    "windyId": "1793871686",
    "category": "Live",
    "coordinates": {
      "lat": 52.27215,
      "lng": 0.44913
    },
    "enabled": true,
    "lastUpdated": "2026-01-11T06:52:39.649Z"
  },
  {
    "id": "windy-1375040360",
    "name": "t Zandt: Weerstation",
    "location": "t Zandt, Netherlands",
    "description": "Live webcam from t Zandt, Netherlands",
    "source": "windy",
    "windyId": "1375040360",
    "category": "Live",
    "coordinates": {
      "lat": 53.36838,
      "lng": 6.77337
    },
    "enabled": true,
    "lastUpdated": "2026-01-11T06:52:39.649Z"
  },
  {
    "id": "windy-1597053241",
    "name": "Merksplas › North",
    "location": "Merksplas, Belgium",
    "description": "Live webcam from Merksplas, Belgium",
    "source": "windy",
    "windyId": "1597053241",
    "category": "Live",
    "coordinates": {
      "lat": 51.35591,
      "lng": 4.85523
    },
    "enabled": true,
    "lastUpdated": "2026-01-11T06:52:39.649Z"
  },
  {
    "id": "windy-1345852220",
    "name": "Hellendoorn: Nijverdal",
    "location": "Hellendoorn, Netherlands",
    "description": "Live webcam from Hellendoorn, Netherlands",
    "source": "windy",
    "windyId": "1345852220",
    "category": "Live",
    "coordinates": {
      "lat": 52.36161,
      "lng": 6.47215
    },
    "enabled": true,
    "lastUpdated": "2026-01-11T06:52:39.649Z"
  },
  {
    "id": "windy-1473490539",
    "name": "Goeree-Overflakkee › South: Grevelingenmeer",
    "location": "Goeree-Overflakkee, Netherlands",
    "description": "Live webcam from Goeree-Overflakkee, Netherlands",
    "source": "windy",
    "windyId": "1473490539",
    "category": "Live",
    "coordinates": {
      "lat": 51.77969,
      "lng": 3.87844
    },
    "enabled": true,
    "lastUpdated": "2026-01-11T06:52:39.649Z"
  },
  {
    "id": "windy-1617377416",
    "name": "Blankenberge: O'Neill Beach Club - Strand Blankenberge pier",
    "location": "Blankenberge, Belgium",
    "description": "Live webcam from Blankenberge, Belgium",
    "source": "windy",
    "windyId": "1617377416",
    "category": "Live",
    "coordinates": {
      "lat": 51.32008,
      "lng": 3.14082
    },
    "enabled": true,
    "lastUpdated": "2026-01-11T06:52:39.649Z"
  },
  {
    "id": "windy-1793868447",
    "name": "Ashford",
    "location": "Ashford, United Kingdom",
    "description": "Live webcam from Ashford, United Kingdom",
    "source": "windy",
    "windyId": "1793868447",
    "category": "Live",
    "coordinates": {
      "lat": 51.17608,
      "lng": 0.84415
    },
    "enabled": true,
    "lastUpdated": "2026-01-11T06:52:39.649Z"
  },
  {
    "id": "windy-1700497511",
    "name": "Ameland › North",
    "location": "Ameland, Netherlands",
    "description": "Live webcam from Ameland, Netherlands",
    "source": "windy",
    "windyId": "1700497511",
    "category": "Live",
    "coordinates": {
      "lat": 53.46026,
      "lng": 5.77864
    },
    "enabled": true,
    "lastUpdated": "2026-01-11T06:52:39.649Z"
  },
  {
    "id": "windy-1712043144",
    "name": "North Norfolk",
    "location": "North Norfolk, United Kingdom",
    "description": "Live webcam from North Norfolk, United Kingdom",
    "source": "windy",
    "windyId": "1712043144",
    "category": "Live",
    "coordinates": {
      "lat": 52.71207,
      "lng": 1.40855
    },
    "enabled": true,
    "lastUpdated": "2026-01-11T06:52:39.649Z"
  },
  {
    "id": "windy-1602081918",
    "name": "Gravelines",
    "location": "Gravelines, France",
    "description": "Live webcam from Gravelines, France",
    "source": "windy",
    "windyId": "1602081918",
    "category": "Live",
    "coordinates": {
      "lat": 51.0038,
      "lng": 2.10879
    },
    "enabled": true,
    "lastUpdated": "2026-01-11T06:52:39.649Z"
  },
  {
    "id": "windy-1335863836",
    "name": "Wetzlar: Domplatz",
    "location": "Wetzlar, Germany",
    "description": "Live webcam from Wetzlar, Germany",
    "source": "windy",
    "windyId": "1335863836",
    "category": "Live",
    "coordinates": {
      "lat": 50.55588,
      "lng": 8.50187
    },
    "enabled": true,
    "lastUpdated": "2026-01-11T06:52:39.649Z"
  },
  {
    "id": "windy-1356280101",
    "name": "Lohndorf: Kirche Sinzig",
    "location": "Lohndorf, Germany",
    "description": "Live webcam from Lohndorf, Germany",
    "source": "windy",
    "windyId": "1356280101",
    "category": "Live",
    "coordinates": {
      "lat": 50.52883,
      "lng": 7.20334
    },
    "enabled": true,
    "lastUpdated": "2026-01-11T06:52:39.649Z"
  },
  {
    "id": "windy-1611232315",
    "name": "Sprimont: Dolembreux",
    "location": "Sprimont, Belgium",
    "description": "Live webcam from Sprimont, Belgium",
    "source": "windy",
    "windyId": "1611232315",
    "category": "Live",
    "coordinates": {
      "lat": 50.53118,
      "lng": 5.61039
    },
    "enabled": true,
    "lastUpdated": "2026-01-11T06:52:39.649Z"
  },
  {
    "id": "windy-1715283382",
    "name": "Mainz › South: Johannes Gutenberg University Mainz Botanical Garden",
    "location": "Mainz, Germany",
    "description": "Live webcam from Mainz, Germany",
    "source": "windy",
    "windyId": "1715283382",
    "category": "Live",
    "coordinates": {
      "lat": 49.99207,
      "lng": 8.24131
    },
    "enabled": true,
    "lastUpdated": "2026-01-11T06:52:39.649Z"
  },
  {
    "id": "windy-1468015275",
    "name": "Cucq: Boulevard Edmond Labrasse",
    "location": "Cucq, France",
    "description": "Live webcam from Cucq, France",
    "source": "windy",
    "windyId": "1468015275",
    "category": "Live",
    "coordinates": {
      "lat": 50.48,
      "lng": 1.62
    },
    "enabled": true,
    "lastUpdated": "2026-01-11T06:52:39.649Z"
  },
  {
    "id": "windy-1581168847",
    "name": "Hestrud › North-east",
    "location": "Hestrud, France",
    "description": "Live webcam from Hestrud, France",
    "source": "windy",
    "windyId": "1581168847",
    "category": "Live",
    "coordinates": {
      "lat": 50.19614,
      "lng": 4.14458
    },
    "enabled": true,
    "lastUpdated": "2026-01-11T06:52:39.649Z"
  },
  {
    "id": "windy-1317633173",
    "name": "Ottignies-Louvain-la-Neuve: Ottignies: L.N.N. Météo ON4MBL - WebCam en Live",
    "location": "Ottignies-Louvain-la-Neuve, Belgium",
    "description": "Live webcam from Ottignies-Louvain-la-Neuve, Belgium",
    "source": "windy",
    "windyId": "1317633173",
    "category": "Live",
    "coordinates": {
      "lat": 50.65797,
      "lng": 4.57452
    },
    "enabled": true,
    "lastUpdated": "2026-01-11T06:52:39.649Z"
  },
  {
    "id": "windy-1579768139",
    "name": "Bernkastel-Kues: Moselhotel Sonnenuhr",
    "location": "Bernkastel-Kues, Germany",
    "description": "Live webcam from Bernkastel-Kues, Germany",
    "source": "windy",
    "windyId": "1579768139",
    "category": "Live",
    "coordinates": {
      "lat": 49.94422,
      "lng": 7.03862
    },
    "enabled": true,
    "lastUpdated": "2026-01-11T06:52:39.649Z"
  },
  {
    "id": "windy-1761522711",
    "name": "Braniewo",
    "location": "Braniewo, Poland",
    "description": "Live webcam from Braniewo, Poland",
    "source": "windy",
    "windyId": "1761522711",
    "category": "Live",
    "coordinates": {
      "lat": 54.38111,
      "lng": 19.82444
    },
    "enabled": true,
    "lastUpdated": "2026-01-11T06:50:50.195Z"
  },
  {
    "id": "windy-1469459469",
    "name": "Almsta › North-east: Gåsvik",
    "location": "Almsta, Sweden",
    "description": "Live webcam from Almsta, Sweden",
    "source": "windy",
    "windyId": "1469459469",
    "category": "Live",
    "coordinates": {
      "lat": 59.93896,
      "lng": 18.84764
    },
    "enabled": true,
    "lastUpdated": "2026-01-11T06:50:50.195Z"
  },
  {
    "id": "windy-1309860469",
    "name": "Kil: Frykstabacken",
    "location": "Kil, Sweden",
    "description": "Live webcam from Kil, Sweden",
    "source": "windy",
    "windyId": "1309860469",
    "category": "Live",
    "coordinates": {
      "lat": 59.52932,
      "lng": 13.33539
    },
    "enabled": true,
    "lastUpdated": "2026-01-11T06:50:50.195Z"
  },
  {
    "id": "windy-1669550672",
    "name": "Stora Strangsbo › North: V&auml;ster&aring;s",
    "location": "unknown, Sweden",
    "description": "Live webcam from unknown, Sweden",
    "source": "windy",
    "windyId": "1669550672",
    "category": "Live",
    "coordinates": {
      "lat": 59.7,
      "lng": 16.48
    },
    "enabled": true,
    "lastUpdated": "2026-01-11T06:50:50.195Z"
  },
  {
    "id": "windy-1705591657",
    "name": "Annaboda",
    "location": "Annaboda, Sweden",
    "description": "Live webcam from Annaboda, Sweden",
    "source": "windy",
    "windyId": "1705591657",
    "category": "Live",
    "coordinates": {
      "lat": 59.33908,
      "lng": 14.94312
    },
    "enabled": true,
    "lastUpdated": "2026-01-11T06:50:50.195Z"
  },
  {
    "id": "windy-1663964694",
    "name": "Vastberga › North-east: Tpl",
    "location": "unknown, Sweden",
    "description": "Live webcam from unknown, Sweden",
    "source": "windy",
    "windyId": "1663964694",
    "category": "Live",
    "coordinates": {
      "lat": 59.29599,
      "lng": 18.00415
    },
    "enabled": true,
    "lastUpdated": "2026-01-11T06:50:50.195Z"
  },
  {
    "id": "windy-1653160199",
    "name": "Toreboda",
    "location": "Toreboda, Sweden",
    "description": "Live webcam from Toreboda, Sweden",
    "source": "windy",
    "windyId": "1653160199",
    "category": "Live",
    "coordinates": {
      "lat": 58.70708,
      "lng": 14.12537
    },
    "enabled": true,
    "lastUpdated": "2026-01-11T06:50:50.195Z"
  },
  {
    "id": "windy-1681734189",
    "name": "Kvillinge forsamling › North-west",
    "location": "unknown, Sweden",
    "description": "Live webcam from unknown, Sweden",
    "source": "windy",
    "windyId": "1681734189",
    "category": "Live",
    "coordinates": {
      "lat": 58.67034,
      "lng": 16.13634
    },
    "enabled": true,
    "lastUpdated": "2026-01-11T06:50:50.195Z"
  },
  {
    "id": "windy-1734121204",
    "name": "Vedeby › North-east: Karlskrona Östra norrut",
    "location": "unknown, Sweden",
    "description": "Live webcam from unknown, Sweden",
    "source": "windy",
    "windyId": "1734121204",
    "category": "Live",
    "coordinates": {
      "lat": 56.20628,
      "lng": 15.64188
    },
    "enabled": true,
    "lastUpdated": "2026-01-11T06:50:50.195Z"
  },
  {
    "id": "windy-1507155065",
    "name": "Vestermarie: Bornholm - Ronne Havn, Denmark",
    "location": "Vestermarie, Denmark",
    "description": "Live webcam from Vestermarie, Denmark",
    "source": "windy",
    "windyId": "1507155065",
    "category": "Live",
    "coordinates": {
      "lat": 55.09908,
      "lng": 14.69093
    },
    "enabled": true,
    "lastUpdated": "2026-01-11T06:50:50.195Z"
  },
  {
    "id": "windy-1598476586",
    "name": "Solvesborg › North-east: Hälleviks Fiskemuseum",
    "location": "Solvesborg, Sweden",
    "description": "Live webcam from Solvesborg, Sweden",
    "source": "windy",
    "windyId": "1598476586",
    "category": "Live",
    "coordinates": {
      "lat": 56.01097,
      "lng": 14.69718
    },
    "enabled": true,
    "lastUpdated": "2026-01-11T06:50:50.195Z"
  },
  {
    "id": "windy-1600240602",
    "name": "Vastervik › South: Nordic Resort AB - SLINGSVIKEN",
    "location": "Vastervik, Sweden",
    "description": "Live webcam from Vastervik, Sweden",
    "source": "windy",
    "windyId": "1600240602",
    "category": "Live",
    "coordinates": {
      "lat": 57.62608,
      "lng": 16.53009
    },
    "enabled": true,
    "lastUpdated": "2026-01-11T06:50:50.195Z"
  },
  {
    "id": "windy-1547822137",
    "name": "Ingatorp › North-west: Jönköpings län, Sverige: Valbacken",
    "location": "Ingatorp, Sweden",
    "description": "Live webcam from Ingatorp, Sweden",
    "source": "windy",
    "windyId": "1547822137",
    "category": "Live",
    "coordinates": {
      "lat": 57.64331,
      "lng": 15.41996
    },
    "enabled": true,
    "lastUpdated": "2026-01-11T06:50:50.195Z"
  },
  {
    "id": "windy-1469459244",
    "name": "Motala › South: Motalabron Bridge",
    "location": "Motala, Sweden",
    "description": "Live webcam from Motala, Sweden",
    "source": "windy",
    "windyId": "1469459244",
    "category": "Live",
    "coordinates": {
      "lat": 58.53963,
      "lng": 15.01706
    },
    "enabled": true,
    "lastUpdated": "2026-01-11T06:50:50.195Z"
  },
  {
    "id": "windy-1346260812",
    "name": "Vaxjo: Växjö Linnégallerian",
    "location": "Vaxjo, Sweden",
    "description": "Live webcam from Vaxjo, Sweden",
    "source": "windy",
    "windyId": "1346260812",
    "category": "Live",
    "coordinates": {
      "lat": 56.87862,
      "lng": 14.80807
    },
    "enabled": true,
    "lastUpdated": "2026-01-11T06:50:50.195Z"
  },
  {
    "id": "windy-1423920599",
    "name": "Fyrudden › South-east: Östergötland, Sweden 2",
    "location": "Fyrudden, Sweden",
    "description": "Live webcam from Fyrudden, Sweden",
    "source": "windy",
    "windyId": "1423920599",
    "category": "Live",
    "coordinates": {
      "lat": 58.19209,
      "lng": 16.85223
    },
    "enabled": true,
    "lastUpdated": "2026-01-11T06:50:50.195Z"
  },
  {
    "id": "windy-1530806889",
    "name": "Bialogora: Województwo pomorskie, Rzeczpospolita Polska",
    "location": "Bialogora, Poland",
    "description": "Live webcam from Bialogora, Poland",
    "source": "windy",
    "windyId": "1530806889",
    "category": "Live",
    "coordinates": {
      "lat": 54.82936,
      "lng": 17.95479
    },
    "enabled": true,
    "lastUpdated": "2026-01-11T06:50:50.195Z"
  },
  {
    "id": "windy-1460298694",
    "name": "Oxelosund: Oxelösunds Hamn - Södermanland, Sweden: Oxelösunds Hamn",
    "location": "Oxelosund, Sweden",
    "description": "Live webcam from Oxelosund, Sweden",
    "source": "windy",
    "windyId": "1460298694",
    "category": "Live",
    "coordinates": {
      "lat": 58.66256,
      "lng": 17.11408
    },
    "enabled": true,
    "lastUpdated": "2026-01-11T06:50:50.195Z"
  },
  {
    "id": "windy-1440564477",
    "name": "Stora Herrestad › South: Ystads Saltsjöbad - Skåne län, Sverige",
    "location": "Stora Herrestad, Sweden",
    "description": "Live webcam from Stora Herrestad, Sweden",
    "source": "windy",
    "windyId": "1440564477",
    "category": "Live",
    "coordinates": {
      "lat": 55.4251,
      "lng": 13.84974
    },
    "enabled": true,
    "lastUpdated": "2026-01-11T06:50:50.195Z"
  },
  {
    "id": "windy-1469458084",
    "name": "Kattilstorp › West: Ljungarum västerut",
    "location": "Kattilstorp, Sweden",
    "description": "Live webcam from Kattilstorp, Sweden",
    "source": "windy",
    "windyId": "1469458084",
    "category": "Live",
    "coordinates": {
      "lat": 57.75829,
      "lng": 14.15698
    },
    "enabled": true,
    "lastUpdated": "2026-01-11T06:50:50.195Z"
  },
  {
    "id": "windy-1566246156",
    "name": "Ljungby › North-east: Norra",
    "location": "Ljungby, Sweden",
    "description": "Live webcam from Ljungby, Sweden",
    "source": "windy",
    "windyId": "1566246156",
    "category": "Live",
    "coordinates": {
      "lat": 56.85821,
      "lng": 13.94338
    },
    "enabled": true,
    "lastUpdated": "2026-01-11T06:50:50.195Z"
  },
  {
    "id": "windy-1531050274",
    "name": "Ustka: Województwo pomorskie, Rzeczpospolita Polska",
    "location": "Ustka, Poland",
    "description": "Live webcam from Ustka, Poland",
    "source": "windy",
    "windyId": "1531050274",
    "category": "Live",
    "coordinates": {
      "lat": 54.58762,
      "lng": 16.86475
    },
    "enabled": true,
    "lastUpdated": "2026-01-11T06:50:50.195Z"
  },
  {
    "id": "windy-1693742494",
    "name": "Slattagardet › North: Forssa",
    "location": "unknown, Sweden",
    "description": "Live webcam from unknown, Sweden",
    "source": "windy",
    "windyId": "1693742494",
    "category": "Live",
    "coordinates": {
      "lat": 57.7,
      "lng": 13.2
    },
    "enabled": true,
    "lastUpdated": "2026-01-11T06:50:50.195Z"
  },
  {
    "id": "windy-1674727155",
    "name": "Trelleborgs kommun › North",
    "location": "unknown, Sweden",
    "description": "Live webcam from unknown, Sweden",
    "source": "windy",
    "windyId": "1674727155",
    "category": "Live",
    "coordinates": {
      "lat": 55.00676,
      "lng": 13.01743
    },
    "enabled": true,
    "lastUpdated": "2026-01-11T06:50:50.195Z"
  },
  {
    "id": "windy-1664228305",
    "name": "Malmo › South: Limhamns Småbåtshamn",
    "location": "Malmo, Sweden",
    "description": "Live webcam from Malmo, Sweden",
    "source": "windy",
    "windyId": "1664228305",
    "category": "Live",
    "coordinates": {
      "lat": 55.5844,
      "lng": 12.91877
    },
    "enabled": true,
    "lastUpdated": "2026-01-11T06:50:50.195Z"
  },
  {
    "id": "windy-1521020031",
    "name": "Kvibille › South-east",
    "location": "Kvibille, Sweden",
    "description": "Live webcam from Kvibille, Sweden",
    "source": "windy",
    "windyId": "1521020031",
    "category": "Live",
    "coordinates": {
      "lat": 56.75977,
      "lng": 12.83901
    },
    "enabled": true,
    "lastUpdated": "2026-01-11T06:50:50.195Z"
  },
  {
    "id": "windy-1475584817",
    "name": "Kalmar › North-west: Ölandsbron Högbro västerut",
    "location": "Kalmar, Sweden",
    "description": "Live webcam from Kalmar, Sweden",
    "source": "windy",
    "windyId": "1475584817",
    "category": "Live",
    "coordinates": {
      "lat": 56.68042,
      "lng": 16.38726
    },
    "enabled": true,
    "lastUpdated": "2026-01-11T06:50:50.195Z"
  },
  {
    "id": "windy-1751551115",
    "name": "Oslo › North",
    "location": "Oslo, Norway",
    "description": "Live webcam from Oslo, Norway",
    "source": "windy",
    "windyId": "1751551115",
    "category": "Live",
    "coordinates": {
      "lat": 59.97174,
      "lng": 10.81305
    },
    "enabled": true,
    "lastUpdated": "2026-01-11T06:50:50.195Z"
  },
  {
    "id": "windy-1793887754",
    "name": "Javall",
    "location": "Javall, Norway",
    "description": "Live webcam from Javall, Norway",
    "source": "windy",
    "windyId": "1793887754",
    "category": "Live",
    "coordinates": {
      "lat": 59.60732,
      "lng": 11.61527
    },
    "enabled": true,
    "lastUpdated": "2026-01-11T06:50:50.195Z"
  },
  {
    "id": "windy-1589270274",
    "name": "Halden › South: Halden nursing homes",
    "location": "Halden, Norway",
    "description": "Live webcam from Halden, Norway",
    "source": "windy",
    "windyId": "1589270274",
    "category": "Live",
    "coordinates": {
      "lat": 59.12897,
      "lng": 11.37622
    },
    "enabled": true,
    "lastUpdated": "2026-01-11T06:50:50.195Z"
  },
  {
    "id": "windy-1618818444",
    "name": "Saeby",
    "location": "Saeby, Denmark",
    "description": "Live webcam from Saeby, Denmark",
    "source": "windy",
    "windyId": "1618818444",
    "category": "Live",
    "coordinates": {
      "lat": 57.34483,
      "lng": 10.41411
    },
    "enabled": true,
    "lastUpdated": "2026-01-11T06:50:50.195Z"
  },
  {
    "id": "windy-1335471782",
    "name": "Aarhus › North: Kalø Vig › South-East: indsejling Kaløvig bådehavn",
    "location": "Aarhus, Denmark",
    "description": "Live webcam from Aarhus, Denmark",
    "source": "windy",
    "windyId": "1335471782",
    "category": "Live",
    "coordinates": {
      "lat": 56.24426,
      "lng": 10.3438
    },
    "enabled": true,
    "lastUpdated": "2026-01-11T06:50:50.195Z"
  },
  {
    "id": "windy-1663965242",
    "name": "Angas › North-west: Tynneredsmotet Södra",
    "location": "unknown, Sweden",
    "description": "Live webcam from unknown, Sweden",
    "source": "windy",
    "windyId": "1663965242",
    "category": "Live",
    "coordinates": {
      "lat": 57.65066,
      "lng": 11.90822
    },
    "enabled": true,
    "lastUpdated": "2026-01-11T06:50:50.195Z"
  },
  {
    "id": "windy-1655559349",
    "name": "Vordingborg › North-west",
    "location": "Vordingborg, Denmark",
    "description": "Live webcam from Vordingborg, Denmark",
    "source": "windy",
    "windyId": "1655559349",
    "category": "Live",
    "coordinates": {
      "lat": 54.96609,
      "lng": 11.88391
    },
    "enabled": true,
    "lastUpdated": "2026-01-11T06:50:50.195Z"
  },
  {
    "id": "windy-1638101049",
    "name": "Soro › North-west: Sor&oslash",
    "location": "Soro, Denmark",
    "description": "Live webcam from Soro, Denmark",
    "source": "windy",
    "windyId": "1638101049",
    "category": "Live",
    "coordinates": {
      "lat": 55.5,
      "lng": 11.6
    },
    "enabled": true,
    "lastUpdated": "2026-01-11T06:50:50.195Z"
  },
  {
    "id": "windy-1339603491",
    "name": "Soby: Ærø Golf Klub - Skjoldnæs Lighthouse",
    "location": "Soby, Denmark",
    "description": "Live webcam from Soby, Denmark",
    "source": "windy",
    "windyId": "1339603491",
    "category": "Live",
    "coordinates": {
      "lat": 54.9635,
      "lng": 10.21372
    },
    "enabled": true,
    "lastUpdated": "2026-01-11T06:50:50.195Z"
  },
  {
    "id": "windy-1469458955",
    "name": "Vasemyren › South: Kärragård CPL söderut",
    "location": "Vasemyren, Sweden",
    "description": "Live webcam from Vasemyren, Sweden",
    "source": "windy",
    "windyId": "1469458955",
    "category": "Live",
    "coordinates": {
      "lat": 58.35232,
      "lng": 11.86893
    },
    "enabled": true,
    "lastUpdated": "2026-01-11T06:50:50.195Z"
  },
  {
    "id": "windy-1311177279",
    "name": "Ramlose: Lake Arresoe",
    "location": "Ramlose, Denmark",
    "description": "Live webcam from Ramlose, Denmark",
    "source": "windy",
    "windyId": "1311177279",
    "category": "Live",
    "coordinates": {
      "lat": 56.0165,
      "lng": 12.08779
    },
    "enabled": true,
    "lastUpdated": "2026-01-11T06:50:50.195Z"
  },
  {
    "id": "windy-1434659056",
    "name": "Hunnestad › North: Varbergs Flygklubb",
    "location": "Hunnestad, Sweden",
    "description": "Live webcam from Hunnestad, Sweden",
    "source": "windy",
    "windyId": "1434659056",
    "category": "Live",
    "coordinates": {
      "lat": 57.12214,
      "lng": 12.22524
    },
    "enabled": true,
    "lastUpdated": "2026-01-11T06:50:50.195Z"
  },
  {
    "id": "windy-1433862246",
    "name": "Kadrina alevik: Kadrina - Lääne-Virumaa, Estonia",
    "location": "unknown, Estonia",
    "description": "Live webcam from unknown, Estonia",
    "source": "windy",
    "windyId": "1433862246",
    "category": "Live",
    "coordinates": {
      "lat": 59.34509,
      "lng": 26.12514
    },
    "enabled": true,
    "lastUpdated": "2026-01-11T06:50:50.501Z"
  },
  {
    "id": "windy-1596907850",
    "name": "Suurkula › South-west",
    "location": "unknown, Estonia",
    "description": "Live webcam from unknown, Estonia",
    "source": "windy",
    "windyId": "1596907850",
    "category": "Live",
    "coordinates": {
      "lat": 57.93767,
      "lng": 26.97701
    },
    "enabled": true,
    "lastUpdated": "2026-01-11T06:50:50.501Z"
  },
  {
    "id": "windy-1220423085",
    "name": "Jogeva linn: Jõgeva 2",
    "location": "unknown, Estonia",
    "description": "Live webcam from unknown, Estonia",
    "source": "windy",
    "windyId": "1220423085",
    "category": "Live",
    "coordinates": {
      "lat": 58.74514,
      "lng": 26.40118
    },
    "enabled": true,
    "lastUpdated": "2026-01-11T06:50:50.501Z"
  },
  {
    "id": "windy-1793875438",
    "name": "Muratsi kula",
    "location": "unknown, Estonia",
    "description": "Live webcam from unknown, Estonia",
    "source": "windy",
    "windyId": "1793875438",
    "category": "Live",
    "coordinates": {
      "lat": 58.23056,
      "lng": 22.57583
    },
    "enabled": true,
    "lastUpdated": "2026-01-11T06:50:50.501Z"
  },
  {
    "id": "windy-1220423779",
    "name": "Kardla linn: Kärdla",
    "location": "unknown, Estonia",
    "description": "Live webcam from unknown, Estonia",
    "source": "windy",
    "windyId": "1220423779",
    "category": "Live",
    "coordinates": {
      "lat": 58.99677,
      "lng": 22.74681
    },
    "enabled": true,
    "lastUpdated": "2026-01-11T06:50:50.501Z"
  },
  {
    "id": "windy-1756641714",
    "name": "Burtnieki › North",
    "location": "unknown, Latvia",
    "description": "Live webcam from unknown, Latvia",
    "source": "windy",
    "windyId": "1756641714",
    "category": "Live",
    "coordinates": {
      "lat": 57.7,
      "lng": 25.4
    },
    "enabled": true,
    "lastUpdated": "2026-01-11T06:50:50.501Z"
  },
  {
    "id": "windy-1793875436",
    "name": "Viljandi linn › South",
    "location": "unknown, Estonia",
    "description": "Live webcam from unknown, Estonia",
    "source": "windy",
    "windyId": "1793875436",
    "category": "Live",
    "coordinates": {
      "lat": 58.365,
      "lng": 25.61083
    },
    "enabled": true,
    "lastUpdated": "2026-01-11T06:50:50.501Z"
  },
  {
    "id": "windy-1358174568",
    "name": "Sunisi: Reiņa trase Cam-4",
    "location": "Sunisi, Latvia",
    "description": "Live webcam from Sunisi, Latvia",
    "source": "windy",
    "windyId": "1358174568",
    "category": "Live",
    "coordinates": {
      "lat": 57.17972,
      "lng": 24.8182
    },
    "enabled": true,
    "lastUpdated": "2026-01-11T06:50:50.501Z"
  },
  {
    "id": "windy-1713526230",
    "name": "Melninkai: Molėtai Astronomical Observatory",
    "location": "Melninkai, Lithuania",
    "description": "Live webcam from Melninkai, Lithuania",
    "source": "windy",
    "windyId": "1713526230",
    "category": "Live",
    "coordinates": {
      "lat": 55.31551,
      "lng": 25.55788
    },
    "enabled": true,
    "lastUpdated": "2026-01-11T06:50:50.501Z"
  },
  {
    "id": "windy-1508364665",
    "name": "Kurzemite: Kuldīga, Latvia",
    "location": "Kurzemite, Latvia",
    "description": "Live webcam from Kurzemite, Latvia",
    "source": "windy",
    "windyId": "1508364665",
    "category": "Live",
    "coordinates": {
      "lat": 56.96795,
      "lng": 21.97129
    },
    "enabled": true,
    "lastUpdated": "2026-01-11T06:50:50.501Z"
  },
  {
    "id": "windy-1696410719",
    "name": "Haradok › East: Gorodok",
    "location": "Haradok, Belarus",
    "description": "Live webcam from Haradok, Belarus",
    "source": "windy",
    "windyId": "1696410719",
    "category": "Live",
    "coordinates": {
      "lat": 55.4629,
      "lng": 29.98199
    },
    "enabled": true,
    "lastUpdated": "2026-01-11T06:50:50.501Z"
  },
  {
    "id": "windy-1729430229",
    "name": "Neringa › East: Nida Marina",
    "location": "Neringa, Lithuania",
    "description": "Live webcam from Neringa, Lithuania",
    "source": "windy",
    "windyId": "1729430229",
    "category": "Live",
    "coordinates": {
      "lat": 55.30191,
      "lng": 21.00743
    },
    "enabled": true,
    "lastUpdated": "2026-01-11T06:50:50.501Z"
  },
  {
    "id": "windy-1793873710",
    "name": "Baldones pagasts: Riekstukalns",
    "location": "Baldones pagasts, Latvia",
    "description": "Live webcam from Baldones pagasts, Latvia",
    "source": "windy",
    "windyId": "1793873710",
    "category": "Live",
    "coordinates": {
      "lat": 56.77508,
      "lng": 24.40166
    },
    "enabled": true,
    "lastUpdated": "2026-01-11T06:50:50.501Z"
  },
  {
    "id": "windy-1653158593",
    "name": "Palanga: Palanga Pier",
    "location": "Palanga, Lithuania",
    "description": "Live webcam from Palanga, Lithuania",
    "source": "windy",
    "windyId": "1653158593",
    "category": "Live",
    "coordinates": {
      "lat": 55.91993,
      "lng": 21.0493
    },
    "enabled": true,
    "lastUpdated": "2026-01-11T06:50:50.501Z"
  },
  {
    "id": "windy-1698729616",
    "name": "городское поселение Невель",
    "location": "городское поселение Невель, Russia",
    "description": "Live webcam from городское поселение Невель, Russia",
    "source": "windy",
    "windyId": "1698729616",
    "category": "Live",
    "coordinates": {
      "lat": 56.01625,
      "lng": 29.92338
    },
    "enabled": true,
    "lastUpdated": "2026-01-11T06:50:50.501Z"
  },
  {
    "id": "windy-1730635468",
    "name": "Balgale › South-west",
    "location": "Balgale, Latvia",
    "description": "Live webcam from Balgale, Latvia",
    "source": "windy",
    "windyId": "1730635468",
    "category": "Live",
    "coordinates": {
      "lat": 57.1,
      "lng": 22.9
    },
    "enabled": true,
    "lastUpdated": "2026-01-11T06:50:50.501Z"
  },
  {
    "id": "windy-1628073602",
    "name": "Kaunas › East",
    "location": "Kaunas, Lithuania",
    "description": "Live webcam from Kaunas, Lithuania",
    "source": "windy",
    "windyId": "1628073602",
    "category": "Live",
    "coordinates": {
      "lat": 54.92456,
      "lng": 23.92326
    },
    "enabled": true,
    "lastUpdated": "2026-01-11T06:50:50.501Z"
  },
  {
    "id": "windy-1739778089",
    "name": "Vilnius: Geležinio Vilko gatvė",
    "location": "Vilnius, Lithuania",
    "description": "Live webcam from Vilnius, Lithuania",
    "source": "windy",
    "windyId": "1739778089",
    "category": "Live",
    "coordinates": {
      "lat": 54.67648,
      "lng": 25.24614
    },
    "enabled": true,
    "lastUpdated": "2026-01-11T06:50:50.501Z"
  },
  {
    "id": "windy-1592298091",
    "name": "Лебяженское городское поселение: Перекресток",
    "location": "Лебяженское городское поселение, Russia",
    "description": "Live webcam from Лебяженское городское поселение, Russia",
    "source": "windy",
    "windyId": "1592298091",
    "category": "Live",
    "coordinates": {
      "lat": 59.90692,
      "lng": 29.07851
    },
    "enabled": true,
    "lastUpdated": "2026-01-11T06:50:50.501Z"
  },
  {
    "id": "windy-1434025450",
    "name": "Hanko: Tie25 - Santala - Tienpinta",
    "location": "Hanko, Finland",
    "description": "Live webcam from Hanko, Finland",
    "source": "windy",
    "windyId": "1434025450",
    "category": "Live",
    "coordinates": {
      "lat": 59.88288,
      "lng": 23.14848
    },
    "enabled": true,
    "lastUpdated": "2026-01-11T06:50:50.501Z"
  },
  {
    "id": "windy-1736713054",
    "name": "Tallinn › South-west: Tallinn TV Tower",
    "location": "Tallinn, Estonia",
    "description": "Live webcam from Tallinn, Estonia",
    "source": "windy",
    "windyId": "1736713054",
    "category": "Live",
    "coordinates": {
      "lat": 59.47122,
      "lng": 24.88742
    },
    "enabled": true,
    "lastUpdated": "2026-01-11T06:50:50.501Z"
  },
  {
    "id": "windy-1748436268",
    "name": "Kamiensk › West",
    "location": "Kamiensk, Poland",
    "description": "Live webcam from Kamiensk, Poland",
    "source": "windy",
    "windyId": "1748436268",
    "category": "Live",
    "coordinates": {
      "lat": 51.20417,
      "lng": 19.49707
    },
    "enabled": true,
    "lastUpdated": "2026-01-11T06:50:50.799Z"
  },
  {
    "id": "windy-1639755102",
    "name": "Krakow: Stare Miasto: Rynek Główny 1",
    "location": "Krakow, Poland",
    "description": "Live webcam from Krakow, Poland",
    "source": "windy",
    "windyId": "1639755102",
    "category": "Live",
    "coordinates": {
      "lat": 50.06154,
      "lng": 19.93651
    },
    "enabled": true,
    "lastUpdated": "2026-01-11T06:50:50.799Z"
  },
  {
    "id": "windy-1761520809",
    "name": "Bielsko-Biala",
    "location": "Bielsko-Biala, Poland",
    "description": "Live webcam from Bielsko-Biala, Poland",
    "source": "windy",
    "windyId": "1761520809",
    "category": "Live",
    "coordinates": {
      "lat": 49.78972,
      "lng": 19.05611
    },
    "enabled": true,
    "lastUpdated": "2026-01-11T06:50:50.799Z"
  },
  {
    "id": "windy-1603778940",
    "name": "Plawniowice",
    "location": "Plawniowice, Poland",
    "description": "Live webcam from Plawniowice, Poland",
    "source": "windy",
    "windyId": "1603778940",
    "category": "Live",
    "coordinates": {
      "lat": 50.3861,
      "lng": 18.49566
    },
    "enabled": true,
    "lastUpdated": "2026-01-11T06:50:50.799Z"
  },
  {
    "id": "windy-1761571290",
    "name": "Gabin",
    "location": "Gabin, Poland",
    "description": "Live webcam from Gabin, Poland",
    "source": "windy",
    "windyId": "1761571290",
    "category": "Live",
    "coordinates": {
      "lat": 52.39778,
      "lng": 19.73528
    },
    "enabled": true,
    "lastUpdated": "2026-01-11T06:50:50.799Z"
  },
  {
    "id": "windy-1530806685",
    "name": "Gniew: Województwo pomorskie, Rzeczpospolita Polska",
    "location": "Gniew, Poland",
    "description": "Live webcam from Gniew, Poland",
    "source": "windy",
    "windyId": "1530806685",
    "category": "Live",
    "coordinates": {
      "lat": 53.83602,
      "lng": 18.8231
    },
    "enabled": true,
    "lastUpdated": "2026-01-11T06:50:50.799Z"
  },
  {
    "id": "windy-1793891258",
    "name": "Gdansk",
    "location": "Gdansk, Poland",
    "description": "Live webcam from Gdansk, Poland",
    "source": "windy",
    "windyId": "1793891258",
    "category": "Live",
    "coordinates": {
      "lat": 54.349,
      "lng": 18.65172
    },
    "enabled": true,
    "lastUpdated": "2026-01-11T06:50:50.799Z"
  },
  {
    "id": "windy-1793893829",
    "name": "Turek › South-east",
    "location": "Turek, Poland",
    "description": "Live webcam from Turek, Poland",
    "source": "windy",
    "windyId": "1793893829",
    "category": "Live",
    "coordinates": {
      "lat": 52.01627,
      "lng": 18.50067
    },
    "enabled": true,
    "lastUpdated": "2026-01-11T06:50:50.799Z"
  },
  {
    "id": "windy-1617961480",
    "name": "Lodz: Centrum: Piotrkowska - Nawrot",
    "location": "Lodz, Poland",
    "description": "Live webcam from Lodz, Poland",
    "source": "windy",
    "windyId": "1617961480",
    "category": "Live",
    "coordinates": {
      "lat": 51.76235,
      "lng": 19.45791
    },
    "enabled": true,
    "lastUpdated": "2026-01-11T06:50:50.799Z"
  },
  {
    "id": "windy-1479024625",
    "name": "Galewice: Lódzkie, Rzeczpospolita Polska: Urząd Gminy",
    "location": "Galewice, Poland",
    "description": "Live webcam from Galewice, Poland",
    "source": "windy",
    "windyId": "1479024625",
    "category": "Live",
    "coordinates": {
      "lat": 51.34471,
      "lng": 18.25756
    },
    "enabled": true,
    "lastUpdated": "2026-01-11T06:50:50.799Z"
  },
  {
    "id": "windy-1641724347",
    "name": "Lesna",
    "location": "Lesna, Czechia",
    "description": "Live webcam from Lesna, Czechia",
    "source": "windy",
    "windyId": "1641724347",
    "category": "Live",
    "coordinates": {
      "lat": 49.74333,
      "lng": 12.40879
    },
    "enabled": true,
    "lastUpdated": "2026-01-11T06:50:50.799Z"
  },
  {
    "id": "windy-1349722211",
    "name": "Kitzingen: Alte Mainbrücke",
    "location": "Kitzingen, Germany",
    "description": "Live webcam from Kitzingen, Germany",
    "source": "windy",
    "windyId": "1349722211",
    "category": "Live",
    "coordinates": {
      "lat": 49.73965,
      "lng": 10.16387
    },
    "enabled": true,
    "lastUpdated": "2026-01-11T06:50:50.799Z"
  },
  {
    "id": "windy-1617358140",
    "name": "Ellwangen: Erpfental",
    "location": "Ellwangen, Germany",
    "description": "Live webcam from Ellwangen, Germany",
    "source": "windy",
    "windyId": "1617358140",
    "category": "Live",
    "coordinates": {
      "lat": 48.96146,
      "lng": 10.23114
    },
    "enabled": true,
    "lastUpdated": "2026-01-11T06:50:50.799Z"
  },
  {
    "id": "windy-1599474044",
    "name": "Drzkova: Obec Držková - Kopec Vančica",
    "location": "Drzkova, Czechia",
    "description": "Live webcam from Drzkova, Czechia",
    "source": "windy",
    "windyId": "1599474044",
    "category": "Live",
    "coordinates": {
      "lat": 49.31181,
      "lng": 17.77821
    },
    "enabled": true,
    "lastUpdated": "2026-01-11T06:50:50.799Z"
  },
  {
    "id": "windy-1752697683",
    "name": "Line › North-west",
    "location": "Line, Czechia",
    "description": "Live webcam from Line, Czechia",
    "source": "windy",
    "windyId": "1752697683",
    "category": "Live",
    "coordinates": {
      "lat": 49.69666,
      "lng": 13.26558
    },
    "enabled": true,
    "lastUpdated": "2026-01-11T06:50:50.799Z"
  },
  {
    "id": "windy-1324553049",
    "name": "Schnaittach: Blick auf den Rothenberg",
    "location": "Schnaittach, Germany",
    "description": "Live webcam from Schnaittach, Germany",
    "source": "windy",
    "windyId": "1324553049",
    "category": "Live",
    "coordinates": {
      "lat": 49.56199,
      "lng": 11.34673
    },
    "enabled": true,
    "lastUpdated": "2026-01-11T06:50:50.799Z"
  },
  {
    "id": "windy-1642775684",
    "name": "Haibach › West",
    "location": "Haibach, Germany",
    "description": "Live webcam from Haibach, Germany",
    "source": "windy",
    "windyId": "1642775684",
    "category": "Live",
    "coordinates": {
      "lat": 49.03631,
      "lng": 12.74724
    },
    "enabled": true,
    "lastUpdated": "2026-01-11T06:50:50.799Z"
  },
  {
    "id": "windy-1505625234",
    "name": "Letonice › North-west: Jihomoravský kraj, Česko - Bučovská 437",
    "location": "Letonice, Czechia",
    "description": "Live webcam from Letonice, Czechia",
    "source": "windy",
    "windyId": "1505625234",
    "category": "Live",
    "coordinates": {
      "lat": 49.17101,
      "lng": 16.96701
    },
    "enabled": true,
    "lastUpdated": "2026-01-11T06:50:50.799Z"
  },
  {
    "id": "windy-1720536673",
    "name": "Mezno: D3, 63,5 km, České Budějovice Direction",
    "location": "Mezno, Czechia",
    "description": "Live webcam from Mezno, Czechia",
    "source": "windy",
    "windyId": "1720536673",
    "category": "Live",
    "coordinates": {
      "lat": 49.53329,
      "lng": 14.66423
    },
    "enabled": true,
    "lastUpdated": "2026-01-11T06:50:50.799Z"
  },
  {
    "id": "windy-1597686541",
    "name": "Strakonice › North-west",
    "location": "Strakonice, Czechia",
    "description": "Live webcam from Strakonice, Czechia",
    "source": "windy",
    "windyId": "1597686541",
    "category": "Live",
    "coordinates": {
      "lat": 49.24707,
      "lng": 13.9226
    },
    "enabled": true,
    "lastUpdated": "2026-01-11T06:50:50.799Z"
  },
  {
    "id": "windy-1523688891",
    "name": "Leopoldsdorf: Fischteich",
    "location": "Leopoldsdorf, Austria",
    "description": "Live webcam from Leopoldsdorf, Austria",
    "source": "windy",
    "windyId": "1523688891",
    "category": "Live",
    "coordinates": {
      "lat": 48.94906,
      "lng": 15.14339
    },
    "enabled": true,
    "lastUpdated": "2026-01-11T06:50:50.799Z"
  },
  {
    "id": "windy-1744624202",
    "name": "Chvalovice: Letiště Hatě",
    "location": "Chvalovice, Czechia",
    "description": "Live webcam from Chvalovice, Czechia",
    "source": "windy",
    "windyId": "1744624202",
    "category": "Live",
    "coordinates": {
      "lat": 48.76098,
      "lng": 16.05832
    },
    "enabled": true,
    "lastUpdated": "2026-01-11T06:50:50.799Z"
  },
  {
    "id": "windy-1245914317",
    "name": "Werder: Wetterkamera, Havel",
    "location": "Werder, Germany",
    "description": "Live webcam from Werder, Germany",
    "source": "windy",
    "windyId": "1245914317",
    "category": "Live",
    "coordinates": {
      "lat": 52.37184,
      "lng": 12.92693
    },
    "enabled": true,
    "lastUpdated": "2026-01-11T06:50:50.799Z"
  },
  {
    "id": "windy-1793871703",
    "name": "Bialogard: Droga Wojewódzka 163",
    "location": "Bialogard, Poland",
    "description": "Live webcam from Bialogard, Poland",
    "source": "windy",
    "windyId": "1793871703",
    "category": "Live",
    "coordinates": {
      "lat": 54.00756,
      "lng": 15.97498
    },
    "enabled": true,
    "lastUpdated": "2026-01-11T06:50:50.799Z"
  },
  {
    "id": "windy-1262580818",
    "name": "Herzberg › South-west: Wetter-Webcam - Elster",
    "location": "Herzberg, Germany",
    "description": "Live webcam from Herzberg, Germany",
    "source": "windy",
    "windyId": "1262580818",
    "category": "Live",
    "coordinates": {
      "lat": 51.69927,
      "lng": 13.25363
    },
    "enabled": true,
    "lastUpdated": "2026-01-11T06:50:50.799Z"
  },
  {
    "id": "windy-1761530795",
    "name": "Chojnice",
    "location": "Chojnice, Poland",
    "description": "Live webcam from Chojnice, Poland",
    "source": "windy",
    "windyId": "1761530795",
    "category": "Live",
    "coordinates": {
      "lat": 53.69556,
      "lng": 17.56194
    },
    "enabled": true,
    "lastUpdated": "2026-01-11T06:50:50.799Z"
  },
  {
    "id": "windy-1500550481",
    "name": "Gartow › North-east: Gartower See",
    "location": "Gartow, Germany",
    "description": "Live webcam from Gartow, Germany",
    "source": "windy",
    "windyId": "1500550481",
    "category": "Live",
    "coordinates": {
      "lat": 53.027,
      "lng": 11.4632
    },
    "enabled": true,
    "lastUpdated": "2026-01-11T06:50:50.799Z"
  },
  {
    "id": "windy-1305225693",
    "name": "Braunlage: Zentrum 2",
    "location": "Braunlage, Germany",
    "description": "Live webcam from Braunlage, Germany",
    "source": "windy",
    "windyId": "1305225693",
    "category": "Live",
    "coordinates": {
      "lat": 51.72759,
      "lng": 10.6109
    },
    "enabled": true,
    "lastUpdated": "2026-01-11T06:50:50.799Z"
  },
  {
    "id": "windy-1676666771",
    "name": "Swinoujscie",
    "location": "Swinoujscie, Poland",
    "description": "Live webcam from Swinoujscie, Poland",
    "source": "windy",
    "windyId": "1676666771",
    "category": "Live",
    "coordinates": {
      "lat": 53.92046,
      "lng": 14.26009
    },
    "enabled": true,
    "lastUpdated": "2026-01-11T06:50:50.799Z"
  },
  {
    "id": "windy-1642841332",
    "name": "Szczecinek",
    "location": "Szczecinek, Poland",
    "description": "Live webcam from Szczecinek, Poland",
    "source": "windy",
    "windyId": "1642841332",
    "category": "Live",
    "coordinates": {
      "lat": 53.7095,
      "lng": 16.6931
    },
    "enabled": true,
    "lastUpdated": "2026-01-11T06:50:50.799Z"
  },
  {
    "id": "windy-1210417656",
    "name": "Winsen: Luhe Marktplatz-Marstall",
    "location": "Winsen, Germany",
    "description": "Live webcam from Winsen, Germany",
    "source": "windy",
    "windyId": "1210417656",
    "category": "Live",
    "coordinates": {
      "lat": 53.36267,
      "lng": 10.20687
    },
    "enabled": true,
    "lastUpdated": "2026-01-11T06:50:50.799Z"
  },
  {
    "id": "windy-1428271026",
    "name": "Furstenberg › North-east: Röblinsee",
    "location": "Furstenberg, Germany",
    "description": "Live webcam from Furstenberg, Germany",
    "source": "windy",
    "windyId": "1428271026",
    "category": "Live",
    "coordinates": {
      "lat": 53.18395,
      "lng": 13.12355
    },
    "enabled": true,
    "lastUpdated": "2026-01-11T06:50:50.799Z"
  },
  {
    "id": "windy-1643632254",
    "name": "Muncheberg › South-east: Eggersdorf Airport",
    "location": "Muncheberg, Germany",
    "description": "Live webcam from Muncheberg, Germany",
    "source": "windy",
    "windyId": "1643632254",
    "category": "Live",
    "coordinates": {
      "lat": 52.48353,
      "lng": 14.09015
    },
    "enabled": true,
    "lastUpdated": "2026-01-11T06:50:50.799Z"
  },
  {
    "id": "windy-1249043322",
    "name": "Sachsendorf: Cottbus",
    "location": "Sachsendorf, Germany",
    "description": "Live webcam from Sachsendorf, Germany",
    "source": "windy",
    "windyId": "1249043322",
    "category": "Live",
    "coordinates": {
      "lat": 51.72752,
      "lng": 14.32643
    },
    "enabled": true,
    "lastUpdated": "2026-01-11T06:50:50.799Z"
  },
  {
    "id": "windy-1692382336",
    "name": "Szczecin",
    "location": "Szczecin, Poland",
    "description": "Live webcam from Szczecin, Poland",
    "source": "windy",
    "windyId": "1692382336",
    "category": "Live",
    "coordinates": {
      "lat": 53.42269,
      "lng": 14.56314
    },
    "enabled": true,
    "lastUpdated": "2026-01-11T06:50:50.799Z"
  },
  {
    "id": "windy-1619931210",
    "name": "Pila",
    "location": "Pila, Poland",
    "description": "Live webcam from Pila, Poland",
    "source": "windy",
    "windyId": "1619931210",
    "category": "Live",
    "coordinates": {
      "lat": 53.1501,
      "lng": 16.73941
    },
    "enabled": true,
    "lastUpdated": "2026-01-11T06:50:50.799Z"
  },
  {
    "id": "windy-1660478654",
    "name": "Wolfsburg › South-east",
    "location": "Wolfsburg, Germany",
    "description": "Live webcam from Wolfsburg, Germany",
    "source": "windy",
    "windyId": "1660478654",
    "category": "Live",
    "coordinates": {
      "lat": 52.4,
      "lng": 10.8
    },
    "enabled": true,
    "lastUpdated": "2026-01-11T06:50:50.799Z"
  },
  {
    "id": "windy-1761580827",
    "name": "Gorzow Wielkopolski",
    "location": "Gorzow Wielkopolski, Poland",
    "description": "Live webcam from Gorzow Wielkopolski, Poland",
    "source": "windy",
    "windyId": "1761580827",
    "category": "Live",
    "coordinates": {
      "lat": 52.72778,
      "lng": 15.23556
    },
    "enabled": true,
    "lastUpdated": "2026-01-11T06:50:50.799Z"
  },
  {
    "id": "windy-1531498973",
    "name": "Leszno: Województwo wielkopolskie, Rzeczpospolita Polska",
    "location": "Leszno, Poland",
    "description": "Live webcam from Leszno, Poland",
    "source": "windy",
    "windyId": "1531498973",
    "category": "Live",
    "coordinates": {
      "lat": 51.84034,
      "lng": 16.57494
    },
    "enabled": true,
    "lastUpdated": "2026-01-11T06:50:50.799Z"
  },
  {
    "id": "windy-1211142417",
    "name": "Brusewitz: Schwerin",
    "location": "Brusewitz, Germany",
    "description": "Live webcam from Brusewitz, Germany",
    "source": "windy",
    "windyId": "1211142417",
    "category": "Live",
    "coordinates": {
      "lat": 53.63476,
      "lng": 11.42857
    },
    "enabled": true,
    "lastUpdated": "2026-01-11T06:50:50.799Z"
  },
  {
    "id": "windy-1761528852",
    "name": "Bydgoszcz › East",
    "location": "Bydgoszcz, Poland",
    "description": "Live webcam from Bydgoszcz, Poland",
    "source": "windy",
    "windyId": "1761528852",
    "category": "Live",
    "coordinates": {
      "lat": 53.13886,
      "lng": 18.02441
    },
    "enabled": true,
    "lastUpdated": "2026-01-11T06:50:50.799Z"
  },
  {
    "id": "windy-1761613755",
    "name": "Jarocin",
    "location": "Jarocin, Poland",
    "description": "Live webcam from Jarocin, Poland",
    "source": "windy",
    "windyId": "1761613755",
    "category": "Live",
    "coordinates": {
      "lat": 51.96194,
      "lng": 17.48389
    },
    "enabled": true,
    "lastUpdated": "2026-01-11T06:50:50.799Z"
  },
  {
    "id": "windy-1793886289",
    "name": "Gniezno: Rynek na żywo w Gnieźnie",
    "location": "Gniezno, Poland",
    "description": "Live webcam from Gniezno, Poland",
    "source": "windy",
    "windyId": "1793886289",
    "category": "Live",
    "coordinates": {
      "lat": 52.53588,
      "lng": 17.59531
    },
    "enabled": true,
    "lastUpdated": "2026-01-11T06:50:50.799Z"
  },
  {
    "id": "windy-1627819205",
    "name": "Demmin › South-east",
    "location": "Demmin, Germany",
    "description": "Live webcam from Demmin, Germany",
    "source": "windy",
    "windyId": "1627819205",
    "category": "Live",
    "coordinates": {
      "lat": 53.9,
      "lng": 13.1
    },
    "enabled": true,
    "lastUpdated": "2026-01-11T06:50:50.799Z"
  },
  {
    "id": "windy-1249727710",
    "name": "Grimma: Sachsen - Markt",
    "location": "Grimma, Germany",
    "description": "Live webcam from Grimma, Germany",
    "source": "windy",
    "windyId": "1249727710",
    "category": "Live",
    "coordinates": {
      "lat": 51.23675,
      "lng": 12.72899
    },
    "enabled": true,
    "lastUpdated": "2026-01-11T06:50:50.799Z"
  },
  {
    "id": "windy-1684661430",
    "name": "Weissensee › North-west",
    "location": "Weissensee, Germany",
    "description": "Live webcam from Weissensee, Germany",
    "source": "windy",
    "windyId": "1684661430",
    "category": "Live",
    "coordinates": {
      "lat": 51.19497,
      "lng": 11.07272
    },
    "enabled": true,
    "lastUpdated": "2026-01-11T06:50:50.799Z"
  },
  {
    "id": "windy-1793876380",
    "name": "Albrechtice v Jizerskych horach: Bílá Desná přehrada - Protržená přehrada",
    "location": "Albrechtice v Jizerskych horach, Czechia",
    "description": "Live webcam from Albrechtice v Jizerskych horach, Czechia",
    "source": "windy",
    "windyId": "1793876380",
    "category": "Live",
    "coordinates": {
      "lat": 50.80159,
      "lng": 15.27795
    },
    "enabled": true,
    "lastUpdated": "2026-01-11T06:50:50.799Z"
  },
  {
    "id": "windy-1196610064",
    "name": "Wilthen: Sachsen) Blick Richtung Picho",
    "location": "Wilthen, Germany",
    "description": "Live webcam from Wilthen, Germany",
    "source": "windy",
    "windyId": "1196610064",
    "category": "Live",
    "coordinates": {
      "lat": 51.09658,
      "lng": 14.39127
    },
    "enabled": true,
    "lastUpdated": "2026-01-11T06:50:50.799Z"
  },
  {
    "id": "windy-1761522583",
    "name": "Bolkow: Bolków Castle",
    "location": "Bolkow, Poland",
    "description": "Live webcam from Bolkow, Poland",
    "source": "windy",
    "windyId": "1761522583",
    "category": "Live",
    "coordinates": {
      "lat": 50.92194,
      "lng": 16.10111
    },
    "enabled": true,
    "lastUpdated": "2026-01-11T06:50:50.799Z"
  },
  {
    "id": "windy-1427985317",
    "name": "Strzelin › North: Województwo dolnośląskie, Rzeczpospolita Polska",
    "location": "Strzelin, Poland",
    "description": "Live webcam from Strzelin, Poland",
    "source": "windy",
    "windyId": "1427985317",
    "category": "Live",
    "coordinates": {
      "lat": 50.78071,
      "lng": 17.07113
    },
    "enabled": true,
    "lastUpdated": "2026-01-11T06:50:50.799Z"
  },
  {
    "id": "windy-1468334400",
    "name": "Zwickau › South: Saxony, Germany",
    "location": "Zwickau, Germany",
    "description": "Live webcam from Zwickau, Germany",
    "source": "windy",
    "windyId": "1468334400",
    "category": "Live",
    "coordinates": {
      "lat": 50.70508,
      "lng": 12.45486
    },
    "enabled": true,
    "lastUpdated": "2026-01-11T06:50:50.799Z"
  },